Region,Country,City,AQI Value,AQI Category,CO AQI Value,CO AQI Category,Ozone AQI Value,Ozone AQI Category,NO2 AQI Value,NO2 AQI Category,PM2.5 AQI Value,PM2.5 AQI Category,lat,lng
North Africa,Algeria,Adrar,106,Unhealthy for Sensitive Groups,0,Good,45,Good,0,Good,106,Unhealthy for Sensitive Groups,27.8742,-0.2939
North Africa,Algeria,Algiers,154,Unhealthy,10,Good,33,Good,69,Moderate,154,Unhealthy,36.7539,3.0589
North Africa,Algeria,Constantine,74,Moderate,3,Good,34,Good,16,Good,74,Moderate,36.365,6.6147
North Africa,Algeria,Timizart,91,Moderate,3,Good,28,Good,18,Good,91,Moderate,36.8,4.2667
Southern Africa,Angola,Lubango,40,Good,1,Good,14,Good,0,Good,40,Good,-14.9167,13.5
Southern Africa,Angola,Luena,66,Moderate,1,Good,22,Good,0,Good,66,Moderate,-11.7918,19.9062
Southern Africa,Angola,Caluquembe,42,Good,2,Good,12,Good,0,Good,42,Good,-13.9208,14.5347
Southern Africa,Angola,Camacupa,154,Unhealthy,4,Good,28,Good,3,Good,154,Unhealthy,-12.0256,17.4686
Southern Africa,Angola,Ondjiva,20,Good,0,Good,20,Good,0,Good,12,Good,-17.0667,15.7333
Southern Africa,Angola,Lobito,52,Moderate,1,Good,20,Good,0,Good,52,Moderate,-12.3597,13.5308
Southern Africa,Angola,Malanje,68,Moderate,1,Good,21,Good,1,Good,68,Moderate,-9.5333,16.35
Southern Africa,Angola,Luanda,164,Unhealthy,8,Good,7,Good,11,Good,164,Unhealthy,-8.8383,13.2344
Southern Africa,Angola,Lucapa,172,Unhealthy,5,Good,33,Good,6,Good,172,Unhealthy,-8.4228,20.7393
Southern Africa,Angola,Saurimo,103,Unhealthy for Sensitive Groups,2,Good,31,Good,1,Good,103,Unhealthy for Sensitive Groups,-9.65,20.4
Southern Africa,Angola,Sumbe,58,Moderate,2,Good,14,Good,1,Good,58,Moderate,-11.2053,13.8417
Southern Africa,Angola,Benguela,92,Moderate,3,Good,12,Good,2,Good,92,Moderate,-12.55,13.4167
Southern Africa,Angola,Cabinda,49,Good,2,Good,49,Good,0,Good,41,Good,-5.56,12.19
Southern Africa,Angola,Longonjo,28,Good,0,Good,28,Good,0,Good,16,Good,-12.9067,15.1864
Southern Africa,Angola,Menongue,32,Good,0,Good,32,Good,0,Good,8,Good,-14.6556,17.6842
Southern Africa,Angola,Catumbela,53,Moderate,1,Good,20,Good,0,Good,53,Moderate,-12.4167,13.5333
Southern Africa,Angola,Catabola,27,Good,1,Good,23,Good,0,Good,27,Good,-12.1167,17.3
Southern Africa,Angola,Camabatela,198,Unhealthy,12,Good,29,Good,8,Good,198,Unhealthy,-8.1833,15.3667
Southern Africa,Angola,Huambo,28,Good,1,Good,21,Good,0,Good,28,Good,-12.7767,15.7347
Southern Africa,Angola,Caxito,285,Very Unhealthy,23,Good,31,Good,14,Good,285,Very Unhealthy,-8.58,13.6642
Southern Africa,Angola,Luau,54,Moderate,1,Good,20,Good,0,Good,54,Moderate,-10.7044,22.2283
West Africa,Benin,Dogbo,101,Unhealthy for Sensitive Groups,3,Good,18,Good,2,Good,101,Unhealthy for Sensitive Groups,6.8167,1.7833
West Africa,Benin,Malanville,34,Good,1,Good,18,Good,1,Good,34,Good,11.8667,3.3833
West Africa,Benin,Bohicon,77,Moderate,3,Good,14,Good,2,Good,77,Moderate,7.2,2.0667
West Africa,Benin,Ouidah,100,Unhealthy for Sensitive Groups,2,Good,18,Good,2,Good,100,Unhealthy for Sensitive Groups,6.3667,2.0833
West Africa,Benin,Lokossa,47,Good,1,Good,28,Good,0,Good,47,Good,6.6333,1.7167
West Africa,Benin,Cotonou,71,Moderate,1,Good,24,Good,0,Good,71,Moderate,6.3667,2.4333
West Africa,Benin,Abomey,80,Moderate,1,Good,21,Good,1,Good,80,Moderate,7.1856,1.9881
West Africa,Benin,Banikoara,30,Good,2,Good,12,Good,0,Good,30,Good,11.3,2.4333
West Africa,Benin,Djougou,54,Moderate,1,Good,29,Good,0,Good,54,Moderate,9.7,1.6667
West Africa,Benin,Savalou,54,Moderate,1,Good,30,Good,0,Good,54,Moderate,7.9333,1.9667
West Africa,Benin,Nikki,41,Good,1,Good,21,Good,0,Good,41,Good,9.9333,3.2083
West Africa,Benin,Natitingou,51,Moderate,1,Good,27,Good,0,Good,51,Moderate,10.3,1.3667
West Africa,Benin,Parakou,60,Moderate,2,Good,18,Good,0,Good,60,Moderate,9.35,2.6167
West Africa,Benin,Allada,79,Moderate,2,Good,18,Good,2,Good,79,Moderate,6.65,2.15
West Africa,Benin,Tchaourou,63,Moderate,1,Good,34,Good,0,Good,63,Moderate,8.8833,2.6
West Africa,Benin,Bassila,50,Good,2,Good,14,Good,0,Good,50,Good,9.0167,1.6667
Southern Africa,Botswana,Gabane,31,Good,1,Good,18,Good,0,Good,31,Good,-24.6667,25.7833
Southern Africa,Botswana,Mogoditshane,32,Good,1,Good,17,Good,0,Good,32,Good,-24.6333,25.8667
Southern Africa,Botswana,Ramotswa,69,Moderate,2,Good,15,Good,1,Good,69,Moderate,-24.8667,25.8167
Southern Africa,Botswana,Mochudi,39,Good,1,Good,31,Good,0,Good,39,Good,-24.4167,26.15
Southern Africa,Botswana,Mahalapye,39,Good,1,Good,17,Good,0,Good,39,Good,-23.1,26.8
Southern Africa,Botswana,Francistown,42,Good,1,Good,29,Good,0,Good,42,Good,-21.1736,27.5125
Southern Africa,Botswana,Lobatse,68,Moderate,2,Good,18,Good,3,Good,68,Moderate,-25.2167,25.6667
Southern Africa,Botswana,Molepolole,21,Good,0,Good,18,Good,0,Good,21,Good,-24.4067,25.495
Southern Africa,Botswana,Maun,30,Good,0,Good,14,Good,0,Good,30,Good,-19.9833,23.4167
Southern Africa,Botswana,Bobonong,31,Good,0,Good,31,Good,0,Good,24,Good,-21.9704,28.4233
Southern Africa,Botswana,Serowe,49,Good,1,Good,23,Good,0,Good,49,Good,-22.3833,26.7167
Southern Africa,Botswana,Ghanzi,15,Good,0,Good,15,Good,0,Good,11,Good,-21.7,21.65
Southern Africa,Botswana,Palapye,79,Moderate,2,Good,14,Good,1,Good,79,Moderate,-22.55,27.1333
Southern Africa,Botswana,Thamaga,59,Moderate,1,Good,16,Good,0,Good,59,Moderate,-24.7167,25.5333
Southern Africa,Botswana,Letlhakane,29,Good,0,Good,29,Good,0,Good,22,Good,-21.4167,25.5833
Southern Africa,Botswana,Kanye,59,Moderate,1,Good,20,Good,1,Good,59,Moderate,-24.9833,25.35
Southern Africa,Botswana,Gaborone,71,Moderate,1,Good,9,Good,2,Good,71,Moderate,-24.6581,25.9122
West Africa,Burkina Faso,Yako,74,Moderate,1,Good,34,Good,0,Good,74,Moderate,12.9667,-2.2667
West Africa,Burkina Faso,Koudougou,56,Moderate,1,Good,17,Good,0,Good,56,Moderate,12.25,-2.3667
West Africa,Burkina Faso,Garango,54,Moderate,1,Good,25,Good,0,Good,54,Moderate,11.8,-0.55
West Africa,Burkina Faso,Ouahigouya,81,Moderate,1,Good,35,Good,0,Good,81,Moderate,13.5833,-2.4167
West Africa,Burkina Faso,Boromo,26,Good,1,Good,12,Good,0,Good,26,Good,11.75,-2.9333
West Africa,Burkina Faso,Gourcy,66,Moderate,1,Good,19,Good,0,Good,66,Moderate,13.2167,-2.35
West Africa,Burkina Faso,Kaya,38,Good,2,Good,15,Good,2,Good,38,Good,13.0833,-1.0833
West Africa,Burkina Faso,Zorgo,61,Moderate,1,Good,28,Good,0,Good,61,Moderate,12.25,-0.6167
West Africa,Burkina Faso,Djibo,61,Moderate,1,Good,17,Good,3,Good,61,Moderate,14.1011,-1.6306
West Africa,Burkina Faso,Dori,67,Moderate,1,Good,21,Good,2,Good,67,Moderate,14.03,-0.03
West Africa,Burkina Faso,Ouargaye,49,Good,1,Good,26,Good,0,Good,49,Good,11.5,0.05
West Africa,Burkina Faso,Diapaga,36,Good,1,Good,18,Good,0,Good,36,Good,12.0667,1.7833
West Africa,Burkina Faso,Boulsa,48,Good,1,Good,19,Good,1,Good,48,Good,12.6667,-0.5833
West Africa,Burkina Faso,Tenkodogo,54,Moderate,1,Good,27,Good,0,Good,54,Moderate,11.7833,-0.3667
West Africa,Burkina Faso,Kongoussi,80,Moderate,1,Good,37,Good,0,Good,80,Moderate,13.3333,-1.5333
West Africa,Burkina Faso,Nouna,69,Moderate,1,Good,29,Good,0,Good,69,Moderate,12.7333,-3.8667
West Africa,Burkina Faso,Orodara,50,Good,1,Good,16,Good,0,Good,50,Good,10.98,-4.91
West Africa,Burkina Faso,Kombissiri,38,Good,2,Good,12,Good,1,Good,38,Good,12.0667,-1.3333
West Africa,Burkina Faso,Ouagadougou,67,Moderate,1,Good,15,Good,1,Good,67,Moderate,12.3686,-1.5275
West Africa,Burkina Faso,Banfora,54,Moderate,1,Good,12,Good,0,Good,54,Moderate,10.6308,-4.7589
West Africa,Burkina Faso,Tougan,44,Good,1,Good,11,Good,2,Good,44,Good,13.0667,-3.0667
West Africa,Burkina Faso,Dano,38,Good,1,Good,12,Good,0,Good,38,Good,11.1436,-3.0628
East Africa,Burundi,Muramvya,67,Moderate,4,Good,20,Good,1,Good,67,Moderate,-3.25,29.6
East Africa,Burundi,Cibitoke,68,Moderate,1,Good,28,Good,0,Good,68,Moderate,-2.8886,29.12
East Africa,Burundi,Ruyigi,40,Good,1,Good,27,Good,0,Good,40,Good,-3.4833,30.25
East Africa,Burundi,Gitega,56,Moderate,1,Good,26,Good,0,Good,56,Moderate,-3.4283,29.925
East Africa,Burundi,Bubanza,84,Moderate,4,Good,23,Good,1,Good,84,Moderate,-3.0833,29.4
East Africa,Burundi,Ngozi,61,Moderate,3,Good,21,Good,1,Good,61,Moderate,-2.9083,29.8269
East Africa,Burundi,Bujumbura,90,Moderate,5,Good,17,Good,2,Good,90,Moderate,-3.3833,29.3667
East Africa,Burundi,Makamba,39,Good,1,Good,27,Good,0,Good,39,Good,-4.1333,29.8
East Africa,Burundi,Karuzi,45,Good,1,Good,20,Good,0,Good,45,Good,-3.1,30.1667
East Africa,Burundi,Muyinga,64,Moderate,3,Good,17,Good,1,Good,64,Moderate,-2.85,30.3333
East Africa,Burundi,Bururi,97,Moderate,3,Good,16,Good,1,Good,97,Moderate,-3.95,29.6167
East Africa,Burundi,Rutana,42,Good,2,Good,15,Good,0,Good,42,Good,-3.9167,30
East Africa,Burundi,Kayanza,62,Moderate,5,Good,21,Good,2,Good,62,Moderate,-2.9167,29.6167
West Africa,Côte d'Ivoire,Abidjan,105,Unhealthy for Sensitive Groups,4,Good,15,Good,4,Good,105,Unhealthy for Sensitive Groups,5.3167,-4.0333
West Africa,Côte d'Ivoire,Gagnoa,39,Good,1,Good,18,Good,0,Good,39,Good,6.1333,-5.9333
West Africa,Côte d'Ivoire,Touba,29,Good,1,Good,14,Good,0,Good,29,Good,14.8667,-15.8833
West Africa,Côte d'Ivoire,Bingerville,56,Moderate,1,Good,21,Good,1,Good,56,Moderate,5.35,-3.9
West Africa,Côte d'Ivoire,Guiglo,31,Good,1,Good,17,Good,0,Good,31,Good,6.55,-7.4833
West Africa,Côte d'Ivoire,Mankono,58,Moderate,1,Good,12,Good,0,Good,58,Moderate,8.05,-6.1833
West Africa,Côte d'Ivoire,Bouna,32,Good,1,Good,10,Good,0,Good,32,Good,9.2667,-3
West Africa,Côte d'Ivoire,Agboville,114,Unhealthy for Sensitive Groups,3,Good,11,Good,3,Good,114,Unhealthy for Sensitive Groups,5.9333,-4.2167
West Africa,Côte d'Ivoire,Abengourou,64,Moderate,2,Good,18,Good,0,Good,64,Moderate,6.7333,-3.4833
West Africa,Côte d'Ivoire,Korhogo,33,Good,1,Good,12,Good,0,Good,33,Good,9.4167,-5.6167
West Africa,Côte d'Ivoire,Arrah,58,Moderate,1,Good,14,Good,0,Good,58,Moderate,25.5514,84.6603
West Africa,Côte d'Ivoire,Katiola,33,Good,1,Good,22,Good,0,Good,33,Good,8.1333,-5.1
West Africa,Côte d'Ivoire,Bangolo,46,Good,1,Good,14,Good,0,Good,46,Good,7.0123,-7.4864
West Africa,Côte d'Ivoire,Sassandra,28,Good,1,Good,25,Good,0,Good,28,Good,4.95,-6.0833
West Africa,Côte d'Ivoire,Toumodi,72,Moderate,2,Good,12,Good,0,Good,72,Moderate,6.552,-5.019
West Africa,Côte d'Ivoire,Boundiali,21,Good,1,Good,20,Good,0,Good,21,Good,9.5167,-6.4833
West Africa,Côte d'Ivoire,Daoukro,48,Good,1,Good,17,Good,0,Good,48,Good,7.05,-3.9667
West Africa,Côte d'Ivoire,Dabou,61,Moderate,2,Good,23,Good,2,Good,61,Moderate,5.3167,-4.3833
West Africa,Côte d'Ivoire,Aboisso,55,Moderate,2,Good,23,Good,1,Good,55,Moderate,5.4667,-3.2
West Africa,Côte d'Ivoire,Yamoussoukro,56,Moderate,1,Good,17,Good,0,Good,56,Moderate,6.8161,-5.2742
West Africa,Côte d'Ivoire,Man,24,Good,1,Good,18,Good,0,Good,24,Good,7.4,-7.55
West Africa,Côte d'Ivoire,Daloa,72,Moderate,2,Good,6,Good,1,Good,72,Moderate,6.8833,-6.45
West Africa,Côte d'Ivoire,Dimbokro,52,Moderate,1,Good,14,Good,0,Good,52,Moderate,6.65,-4.7
West Africa,Côte d'Ivoire,Bongouanou,73,Moderate,1,Good,15,Good,0,Good,73,Moderate,6.65,-4.2
West Africa,Côte d'Ivoire,Divo,52,Moderate,1,Good,18,Good,0,Good,52,Moderate,5.8333,-5.3667
West Africa,Côte d'Ivoire,Bondoukou,27,Good,1,Good,21,Good,0,Good,27,Good,8.0333,-2.8
Central Africa,Cabo Verde,Mindelo,36,Good,0,Good,36,Good,0,Good,27,Good,16.886,-24.988
Central Africa,Cabo Verde,Praia,40,Good,0,Good,40,Good,0,Good,27,Good,14.918,-23.509
Central Africa,Cameroon,Garoua,59,Moderate,2,Good,12,Good,0,Good,59,Moderate,9.3,13.4
Central Africa,Cameroon,Guider,76,Moderate,3,Good,8,Good,1,Good,76,Moderate,9.9342,13.9486
Central Africa,Cameroon,Wum,54,Moderate,1,Good,15,Good,0,Good,54,Moderate,6.3833,10.0667
Central Africa,Cameroon,Yagoua,57,Moderate,2,Good,14,Good,0,Good,57,Moderate,10.3428,15.2406
Central Africa,Cameroon,Kribi,70,Moderate,2,Good,35,Good,0,Good,70,Moderate,2.935,9.91
Central Africa,Cameroon,Manjo,62,Moderate,3,Good,13,Good,1,Good,62,Moderate,4.85,9.8167
Central Africa,Cameroon,Bafoussam,58,Moderate,3,Good,16,Good,1,Good,58,Moderate,5.4667,10.4167
Central Africa,Cameroon,Foumban,40,Good,1,Good,15,Good,0,Good,40,Good,5.7167,10.9167
Central Africa,Cameroon,Batouri,49,Good,1,Good,19,Good,0,Good,49,Good,4.4333,14.3667
Central Africa,Cameroon,Mbouda,110,Unhealthy for Sensitive Groups,4,Good,12,Good,2,Good,110,Unhealthy for Sensitive Groups,5.6333,10.25
Central Africa,Cameroon,Nanga Eboko,67,Moderate,2,Good,22,Good,0,Good,67,Moderate,4.6708,12.3731
Central Africa,Cameroon,Foumbot,122,Unhealthy for Sensitive Groups,4,Good,12,Good,2,Good,122,Unhealthy for Sensitive Groups,5.5,10.6333
Central Africa,Cameroon,Tibati,36,Good,1,Good,12,Good,0,Good,36,Good,6.4667,12.6333
Central Africa,Cameroon,Bertoua,71,Moderate,2,Good,16,Good,0,Good,71,Moderate,4.5833,13.6833
Central Africa,Cameroon,Lagdo,64,Moderate,2,Good,15,Good,0,Good,64,Moderate,9.05,13.7333
Central Africa,Cameroon,Yokadouma,79,Moderate,3,Good,11,Good,0,Good,79,Moderate,3.5167,15.05
Central Africa,Cameroon,Mora,50,Good,2,Good,24,Good,0,Good,50,Good,10.0088,-84.0216
Central Africa,Cameroon,Kumbo,79,Moderate,4,Good,11,Good,1,Good,79,Moderate,6.2,10.66
Central Africa,Cameroon,Buea,89,Moderate,3,Good,20,Good,1,Good,89,Moderate,4.1667,9.2333
Central Africa,Cameroon,Bafang,75,Moderate,3,Good,15,Good,1,Good,75,Moderate,5.15,10.1833
Central Africa,Cameroon,Akonolinga,66,Moderate,2,Good,23,Good,0,Good,66,Moderate,3.7667,12.25
Central Africa,Cameroon,Kumba,107,Unhealthy for Sensitive Groups,3,Good,18,Good,1,Good,107,Unhealthy for Sensitive Groups,4.6333,9.45
Central Africa,Cameroon,Bamenda,52,Moderate,4,Good,10,Good,1,Good,52,Moderate,5.9614,10.1517
Central Africa,Cameroon,Melong,57,Moderate,1,Good,19,Good,0,Good,57,Moderate,5.1211,9.9528
Central Africa,Cameroon,Bafia,77,Moderate,3,Good,16,Good,0,Good,77,Moderate,4.75,11.2167
Central Africa,Cameroon,Maroua,65,Moderate,2,Good,17,Good,0,Good,65,Moderate,10.5971,14.3157
Central Africa,Cameroon,Abong Mbang,56,Moderate,2,Good,19,Good,0,Good,56,Moderate,3.9833,13.1667
Central Africa,Cameroon,Nkoteng,44,Good,1,Good,18,Good,0,Good,44,Good,4.5167,12.0333
Central Africa,Cameroon,Obala,86,Moderate,2,Good,24,Good,0,Good,86,Moderate,4.1667,11.5333
Central Africa,Cameroon,Bafut,100,Unhealthy for Sensitive Groups,3,Good,12,Good,1,Good,100,Unhealthy for Sensitive Groups,6.0833,10.1
Central Africa,Cameroon,Mfou,42,Good,1,Good,20,Good,0,Good,42,Good,3.96,11.93
Central Africa,Cameroon,Loum,124,Unhealthy for Sensitive Groups,5,Good,13,Good,1,Good,124,Unhealthy for Sensitive Groups,4.718,9.73
Central Africa,Cameroon,Nkongsamba,54,Moderate,1,Good,20,Good,0,Good,54,Moderate,4.95,9.9333
Central Africa,Cameroon,Limbe,42,Good,1,Good,21,Good,0,Good,42,Good,4.0167,9.2167
Central Africa,Cameroon,Douala,79,Moderate,3,Good,25,Good,1,Good,79,Moderate,4.05,9.7
Central Africa,Cameroon,Mbalmayo,49,Good,2,Good,23,Good,0,Good,49,Good,3.5167,11.5
Central Africa,Cameroon,Bogo,75,Moderate,2,Good,16,Good,0,Good,75,Moderate,10.7361,14.6108
Central Africa,Central African Republic,Bocaranga,64,Moderate,2,Good,18,Good,0,Good,64,Moderate,6.9844,15.6408
Central Africa,Central African Republic,Bria,74,Moderate,2,Good,14,Good,0,Good,74,Moderate,6.5369,21.9919
Central Africa,Central African Republic,Bangassou,62,Moderate,2,Good,8,Good,0,Good,62,Moderate,4.7374,22.8195
Central Africa,Central African Republic,Carnot,66,Moderate,3,Good,14,Good,0,Good,66,Moderate,4.94,15.87
Central Africa,Central African Republic,Sibut,53,Moderate,2,Good,1,Good,0,Good,53,Moderate,5.7333,19.0833
Central Africa,Central African Republic,Bossembele,56,Moderate,1,Good,22,Good,0,Good,56,Moderate,5.2667,17.65
Central Africa,Central African Republic,Birao,60,Moderate,2,Good,7,Good,0,Good,60,Moderate,10.294,22.782
Central Africa,Central African Republic,Obo,26,Good,2,Good,7,Good,0,Good,26,Good,5.4,26.5
Central Africa,Central African Republic,Bambari,79,Moderate,2,Good,16,Good,0,Good,79,Moderate,5.7653,20.6742
Central Africa,Central African Republic,Bozoum,57,Moderate,1,Good,15,Good,0,Good,57,Moderate,6.3172,16.3783
Central Africa,Central African Republic,Bouar,35,Good,2,Good,17,Good,0,Good,35,Good,5.95,15.6
Central Africa,Central African Republic,Mobaye,79,Moderate,2,Good,9,Good,0,Good,79,Moderate,4.3167,21.1833
Central Africa,Central African Republic,Nola,78,Moderate,3,Good,8,Good,0,Good,78,Moderate,3.5333,16.0667
Central Africa,Central African Republic,Kabo,86,Moderate,2,Good,9,Good,0,Good,86,Moderate,7.6994,18.6292
Central Africa,Central African Republic,Ippy,69,Moderate,2,Good,8,Good,0,Good,69,Moderate,6.25,21.2
Central Africa,Central African Republic,Grimari,28,Good,2,Good,10,Good,0,Good,28,Good,5.7167,20.05
Central Africa,Central African Republic,Bossangoa,74,Moderate,2,Good,17,Good,0,Good,74,Moderate,6.4833,17.45
Central Africa,Central African Republic,Alindao,60,Moderate,1,Good,14,Good,0,Good,60,Moderate,5.0333,21.2167
Central Africa,Chad,Koumra,59,Moderate,2,Good,6,Good,0,Good,59,Moderate,8.91,17.55
Central Africa,Chad,Massakory,65,Moderate,2,Good,23,Good,1,Good,65,Moderate,13,15.7333
Central Africa,Chad,Bousso,47,Good,2,Good,7,Good,0,Good,47,Good,10.4825,16.7161
Central Africa,Chad,Fianga,58,Moderate,2,Good,7,Good,0,Good,58,Moderate,9.9153,15.1375
Central Africa,Chad,Bol,70,Moderate,1,Good,17,Good,0,Good,70,Moderate,13.46,14.74
Central Africa,Chad,Mongo,53,Moderate,2,Good,10,Good,1,Good,53,Moderate,12.1837,18.7
Central Africa,Chad,Bokoro,46,Good,2,Good,11,Good,0,Good,46,Good,12.3667,17.05
Central Africa,Chad,Sarh,81,Moderate,2,Good,10,Good,0,Good,81,Moderate,9.15,18.3833
Central Africa,Chad,Ati,130,Unhealthy for Sensitive Groups,1,Good,46,Good,0,Good,130,Unhealthy for Sensitive Groups,13.2133,18.3381
Central Africa,Chad,Dourbali,57,Moderate,2,Good,17,Good,0,Good,57,Moderate,11.805,15.8647
Central Africa,Chad,Faya,156,Unhealthy,1,Good,29,Good,0,Good,156,Unhealthy,17.9169,19.1167
Central Africa,Chad,Oum Hadjer,27,Good,2,Good,17,Good,0,Good,27,Good,13.2833,19.6833
Central Africa,Chad,Bitkine,37,Good,2,Good,15,Good,0,Good,37,Good,11.9817,18.2125
Central Africa,Chad,Doba,69,Moderate,1,Good,16,Good,0,Good,69,Moderate,8.66,16.85
Central Africa,Chad,Massaguet,110,Unhealthy for Sensitive Groups,2,Good,33,Good,1,Good,110,Unhealthy for Sensitive Groups,12.4742,15.4428
Central Africa,Chad,Pala,78,Moderate,1,Good,14,Good,0,Good,78,Moderate,9.3646,14.9073
Central Africa,Chad,Benoy,68,Moderate,2,Good,13,Good,0,Good,68,Moderate,8.9908,16.3169
Central Africa,Chad,Moundou,67,Moderate,2,Good,8,Good,0,Good,67,Moderate,8.5667,16.0833
Central Africa,Chad,Biltine,74,Moderate,1,Good,25,Good,0,Good,74,Moderate,14.5275,20.9267
Central Africa,Chad,Bongor,57,Moderate,2,Good,14,Good,0,Good,57,Moderate,10.2806,15.3722
Central Africa,Chad,Kelo,65,Moderate,2,Good,12,Good,0,Good,65,Moderate,9.31,15.81
Central Africa,Chad,Mao,151,Unhealthy,1,Good,37,Good,1,Good,151,Unhealthy,19.5667,-71.0833
Central Africa,Chad,Moussoro,147,Unhealthy for Sensitive Groups,1,Good,44,Good,0,Good,147,Unhealthy for Sensitive Groups,13.6333,16.4833
Island,Comoros,Moroni,39,Good,0,Good,31,Good,0,Good,39,Good,-11.699,43.256
Island,Comoros,Mutsamudu,34,Good,0,Good,25,Good,0,Good,34,Good,-12.1675,44.3939
Island,Comoros,Fomboni,26,Good,0,Good,26,Good,0,Good,23,Good,-12.28,43.7425
Central Africa,Congo,Gamboma,61,Moderate,2,Good,21,Good,0,Good,61,Moderate,-1.8764,15.8644
Central Africa,Congo,Impfondo,73,Moderate,3,Good,11,Good,0,Good,73,Moderate,1.6333,18.0667
Central Africa,Congo,Madingou,68,Moderate,1,Good,24,Good,0,Good,68,Moderate,-4.1536,13.55
Central Africa,Congo,Kinkala,68,Moderate,2,Good,41,Good,0,Good,68,Moderate,-4.3614,14.7644
Central Africa,Congo,Mossendjo,87,Moderate,2,Good,30,Good,0,Good,87,Moderate,-2.95,12.7333
Central Africa,Congo,Sibiti,94,Moderate,2,Good,23,Good,0,Good,94,Moderate,-3.6858,13.3458
Central Africa,Congo,Brazzaville,115,Unhealthy for Sensitive Groups,5,Good,31,Good,2,Good,115,Unhealthy for Sensitive Groups,-4.2694,15.2714
Central Africa,Congo,Owando,60,Moderate,2,Good,25,Good,0,Good,60,Moderate,-0.4833,15.9
Central Africa,Democratic Republic of the Congo,Yangambi,121,Unhealthy for Sensitive Groups,4,Good,24,Good,0,Good,121,Unhealthy for Sensitive Groups,0.7675,24.4414
Central Africa,Democratic Republic of the Congo,Manono,74,Moderate,2,Good,23,Good,1,Good,74,Moderate,-7.2947,27.4545
Central Africa,Democratic Republic of the Congo,Luebo,90,Moderate,4,Good,20,Good,0,Good,90,Moderate,-5.35,21.4167
Central Africa,Democratic Republic of the Congo,Gbadolite,39,Good,2,Good,10,Good,0,Good,39,Good,4.275,21
Central Africa,Democratic Republic of the Congo,Butembo,45,Good,1,Good,16,Good,0,Good,45,Good,0.15,29.2833
Central Africa,Democratic Republic of the Congo,Basoko,84,Moderate,2,Good,9,Good,0,Good,84,Moderate,1.2333,23.6
Central Africa,Democratic Republic of the Congo,Lisala,71,Moderate,2,Good,8,Good,0,Good,71,Moderate,2.1486,21.5136
Central Africa,Democratic Republic of the Congo,Bukama,58,Moderate,1,Good,23,Good,0,Good,58,Moderate,-9.2,25.8333
Central Africa,Democratic Republic of the Congo,Matadi,68,Moderate,2,Good,42,Good,0,Good,68,Moderate,-5.8167,13.4833
Central Africa,Democratic Republic of the Congo,Moba,30,Good,0,Good,30,Good,0,Good,27,Good,-7.0398,29.7661
Central Africa,Democratic Republic of the Congo,Gemena,58,Moderate,1,Good,12,Good,0,Good,58,Moderate,3.25,19.7667
Central Africa,Democratic Republic of the Congo,Libenge,82,Moderate,3,Good,18,Good,0,Good,82,Moderate,3.65,18.6333
Central Africa,Democratic Republic of the Congo,Kipushi,76,Moderate,2,Good,25,Good,1,Good,76,Moderate,-11.7625,27.25
Central Africa,Democratic Republic of the Congo,Kasongo,201,Very Unhealthy,10,Good,48,Good,8,Good,201,Very Unhealthy,-4.45,26.65
Central Africa,Democratic Republic of the Congo,Mbandaka,99,Moderate,3,Good,11,Good,0,Good,99,Moderate,0.0478,18.2558
Central Africa,Democratic Republic of the Congo,Businga,49,Good,3,Good,10,Good,0,Good,49,Good,3.3397,20.87
Central Africa,Democratic Republic of the Congo,Isiro,39,Good,2,Good,7,Good,0,Good,39,Good,2.7833,27.6167
Central Africa,Democratic Republic of the Congo,Watsa,48,Good,1,Good,10,Good,0,Good,48,Good,3.0372,29.5355
Central Africa,Democratic Republic of the Congo,Kasangulu,91,Moderate,2,Good,29,Good,1,Good,91,Moderate,-4.5911,15.1703
Central Africa,Democratic Republic of the Congo,Bandundu,63,Moderate,2,Good,32,Good,0,Good,63,Moderate,-3.3167,17.3667
Central Africa,Democratic Republic of the Congo,Bolobo,59,Moderate,2,Good,20,Good,0,Good,59,Moderate,-2.1667,16.2333
Central Africa,Democratic Republic of the Congo,Bosobolo,60,Moderate,1,Good,21,Good,0,Good,60,Moderate,4.1833,19.9
Central Africa,Democratic Republic of the Congo,Bimbo,62,Moderate,3,Good,16,Good,0,Good,62,Moderate,4.3313,18.5163
Central Africa,Democratic Republic of the Congo,Uvira,50,Good,1,Good,25,Good,0,Good,50,Good,-3.4,29.15
Central Africa,Democratic Republic of the Congo,Kabalo,101,Unhealthy for Sensitive Groups,2,Good,40,Good,2,Good,101,Unhealthy for Sensitive Groups,-6.05,26.9167
Central Africa,Democratic Republic of the Congo,Lodja,165,Unhealthy,10,Good,21,Good,4,Good,165,Unhealthy,-3.5242,23.5964
Central Africa,Democratic Republic of the Congo,Kongolo,137,Unhealthy for Sensitive Groups,3,Good,21,Good,2,Good,137,Unhealthy for Sensitive Groups,-5.4,27
Central Africa,Democratic Republic of the Congo,Gandajika,277,Very Unhealthy,14,Good,47,Good,9,Good,277,Very Unhealthy,-6.75,23.9667
Central Africa,Democratic Republic of the Congo,Goma,129,Unhealthy for Sensitive Groups,2,Good,24,Good,1,Good,129,Unhealthy for Sensitive Groups,-1.6794,29.2336
Central Africa,Democratic Republic of the Congo,Kananga,191,Unhealthy,9,Good,35,Good,4,Good,191,Unhealthy,-5.897,22.4488
Central Africa,Democratic Republic of the Congo,Aketi,66,Moderate,3,Good,8,Good,0,Good,66,Moderate,2.7333,23.75
Central Africa,Democratic Republic of the Congo,Mweka,135,Unhealthy for Sensitive Groups,3,Good,29,Good,0,Good,135,Unhealthy for Sensitive Groups,-4.85,21.5667
Central Africa,Democratic Republic of the Congo,Kisangani,166,Unhealthy,6,Good,15,Good,3,Good,166,Unhealthy,0.5153,25.1911
Central Africa,Democratic Republic of the Congo,Kalemie,93,Moderate,2,Good,29,Good,1,Good,93,Moderate,-5.9128,29.1906
Central Africa,Democratic Republic of the Congo,Kamina,86,Moderate,2,Good,43,Good,1,Good,86,Moderate,-8.7386,24.9906
Central Africa,Democratic Republic of the Congo,Kampene,85,Moderate,1,Good,18,Good,0,Good,85,Moderate,-3.5968,26.6658
Central Africa,Democratic Republic of the Congo,Buta,64,Moderate,2,Good,6,Good,0,Good,64,Moderate,2.8,24.7333
Central Africa,Democratic Republic of the Congo,Mushie,184,Unhealthy,9,Good,31,Good,3,Good,184,Unhealthy,-3.0167,16.9167
Central Africa,Democratic Republic of the Congo,Kabinda,160,Unhealthy,4,Good,70,Moderate,3,Good,160,Unhealthy,-6.13,24.48
Central Africa,Democratic Republic of the Congo,Kambove,77,Moderate,1,Good,30,Good,1,Good,77,Moderate,-10.8764,26.5969
Central Africa,Democratic Republic of the Congo,Bumba,80,Moderate,2,Good,10,Good,0,Good,80,Moderate,2.1844,22.4703
Central Africa,Democratic Republic of the Congo,Binga,70,Moderate,2,Good,15,Good,0,Good,70,Moderate,2.4,20.42
Central Africa,Democratic Republic of the Congo,Bulungu,372,Hazardous,35,Good,37,Good,13,Good,372,Hazardous,-4.55,18.6
Central Africa,Democratic Republic of the Congo,Kaniama,266,Very Unhealthy,12,Good,43,Good,13,Good,266,Very Unhealthy,-7.5696,24.17
Central Africa,Democratic Republic of the Congo,Bangui,58,Moderate,3,Good,11,Good,0,Good,58,Moderate,4.3733,18.5628
Central Africa,Democratic Republic of the Congo,Mangai,103,Unhealthy for Sensitive Groups,5,Good,31,Good,0,Good,103,Unhealthy for Sensitive Groups,-4.0499,19.5333
Central Africa,Democratic Republic of the Congo,Lubumbashi,71,Moderate,1,Good,25,Good,1,Good,71,Moderate,-11.6647,27.4794
Central Africa,Democratic Republic of the Congo,Kindu,160,Unhealthy,6,Good,43,Good,1,Good,160,Unhealthy,-2.95,25.95
Central Africa,Democratic Republic of the Congo,Kinshasa,216,Very Unhealthy,21,Good,105,Unhealthy for Sensitive Groups,7,Good,216,Very Unhealthy,-4.325,15.3222
Central Africa,Democratic Republic of the Congo,Bondo,74,Moderate,2,Good,10,Good,0,Good,74,Moderate,3.8167,23.6833
Central Africa,Democratic Republic of the Congo,Wamba,33,Good,1,Good,12,Good,0,Good,33,Good,2.1442,27.9929
Central Africa,Democratic Republic of the Congo,Demba,175,Unhealthy,7,Good,54,Moderate,2,Good,175,Unhealthy,-5.5,22.2667
Central Africa,Democratic Republic of the Congo,Lusambo,200,Unhealthy,11,Good,16,Good,7,Good,200,Unhealthy,-4.9729,23.4368
Central Africa,Democratic Republic of the Congo,Tshikapa,392,Hazardous,23,Good,37,Good,18,Good,392,Hazardous,-6.4167,20.8
Central Africa,Democratic Republic of the Congo,Tshela,70,Moderate,1,Good,22,Good,0,Good,70,Moderate,-4.9667,12.9333
Central Africa,Democratic Republic of the Congo,Boende,72,Moderate,3,Good,9,Good,0,Good,72,Moderate,-0.281,20.876
Central Africa,Democratic Republic of the Congo,Beni,87,Moderate,3,Good,14,Good,0,Good,87,Moderate,0.5,29.4667
Central Africa,Democratic Republic of the Congo,Ilebo,95,Moderate,6,Good,28,Good,0,Good,95,Moderate,-4.3167,20.6
Central Africa,Democratic Republic of the Congo,Kikwit,267,Very Unhealthy,16,Good,106,Unhealthy for Sensitive Groups,10,Good,267,Very Unhealthy,-5.0386,18.8181
Central Africa,Democratic Republic of the Congo,Likasi,53,Moderate,1,Good,22,Good,0,Good,53,Moderate,-10.9833,26.7333
Central Africa,Democratic Republic of the Congo,Inongo,66,Moderate,2,Good,22,Good,0,Good,66,Moderate,-1.95,18.2667
Central Africa,Democratic Republic of the Congo,Boma,34,Good,1,Good,23,Good,0,Good,34,Good,-5.85,13.05
Central Africa,Democratic Republic of the Congo,Lubao,99,Moderate,2,Good,23,Good,1,Good,99,Moderate,14.9333,120.6
Central Africa,Democratic Republic of the Congo,Bunia,51,Moderate,1,Good,16,Good,0,Good,51,Moderate,1.5667,30.25
North Africa,Egypt,Rosetta,60,Moderate,2,Good,60,Moderate,3,Good,55,Moderate,31.4044,30.4164
North Africa,Egypt,Suez,79,Moderate,1,Good,58,Moderate,2,Good,79,Moderate,29.9667,32.55
North Africa,Egypt,Alexandria,56,Moderate,1,Good,56,Moderate,1,Good,35,Good,31.1975,29.8925
North Africa,Egypt,Port Said,80,Moderate,1,Good,80,Moderate,1,Good,50,Good,31.2625,32.3061
North Africa,Egypt,Damietta,71,Moderate,1,Good,38,Good,1,Good,71,Moderate,31.4167,31.8214
North Africa,Egypt,Ismailia,139,Unhealthy for Sensitive Groups,1,Good,139,Unhealthy for Sensitive Groups,1,Good,67,Moderate,30.5833,32.2667
North Africa,Egypt,Luxor,75,Moderate,1,Good,75,Moderate,0,Good,75,Moderate,25.6833,32.65
North Africa,Egypt,Cairo,81,Moderate,2,Good,53,Moderate,5,Good,81,Moderate,30.0444,31.2358
Central Africa,Equatorial Guinea,Aconibe,52,Moderate,1,Good,20,Good,0,Good,52,Moderate,1.3,10.9333
Central Africa,Equatorial Guinea,Malabo,32,Good,1,Good,22,Good,0,Good,32,Good,3.75,8.7833
East Africa,Eritrea,Barentu,76,Moderate,1,Good,28,Good,0,Good,76,Moderate,15.1167,37.6
East Africa,Eritrea,Asmara,88,Moderate,1,Good,29,Good,0,Good,88,Moderate,15.3228,38.925
East Africa,Eritrea,Edd,163,Unhealthy,1,Good,41,Good,0,Good,163,Unhealthy,13.9333,41.7
East Africa,Ethiopia,Huruta,102,Unhealthy for Sensitive Groups,1,Good,23,Good,0,Good,102,Unhealthy for Sensitive Groups,8.15,39.35
East Africa,Ethiopia,Himora,82,Moderate,1,Good,28,Good,0,Good,82,Moderate,14.2861,36.6097
East Africa,Ethiopia,Debre Birhan,147,Unhealthy for Sensitive Groups,1,Good,25,Good,0,Good,147,Unhealthy for Sensitive Groups,9.6833,39.5333
East Africa,Ethiopia,Bonga,24,Good,1,Good,16,Good,0,Good,24,Good,7.2667,36.2333
East Africa,Ethiopia,Finote Selam,79,Moderate,1,Good,18,Good,0,Good,79,Moderate,10.7,37.2667
East Africa,Ethiopia,Debre Zeyit,64,Moderate,1,Good,25,Good,0,Good,64,Moderate,8.75,38.9833
East Africa,Ethiopia,Goba,54,Moderate,1,Good,21,Good,0,Good,54,Moderate,7,39.9833
East Africa,Ethiopia,Jijiga,90,Moderate,1,Good,21,Good,0,Good,90,Moderate,9.35,42.8
East Africa,Ethiopia,Giyon,86,Moderate,1,Good,24,Good,0,Good,86,Moderate,8.5333,37.9667
East Africa,Ethiopia,Dabat,79,Moderate,1,Good,16,Good,1,Good,79,Moderate,12.9842,37.765
East Africa,Ethiopia,Debre Tabor,53,Moderate,1,Good,20,Good,0,Good,53,Moderate,11.85,38.0167
East Africa,Ethiopia,Dire Dawa,111,Unhealthy for Sensitive Groups,1,Good,23,Good,1,Good,111,Unhealthy for Sensitive Groups,9.6,41.8667
East Africa,Ethiopia,Gebre Guracha,54,Moderate,1,Good,25,Good,0,Good,54,Moderate,9.8,38.4
East Africa,Ethiopia,Korem,156,Unhealthy,1,Good,28,Good,0,Good,156,Unhealthy,12.5,39.5167
East Africa,Ethiopia,Mojo,95,Moderate,1,Good,26,Good,0,Good,95,Moderate,8.65,39.0833
East Africa,Ethiopia,Bichena,148,Unhealthy for Sensitive Groups,2,Good,22,Good,1,Good,148,Unhealthy for Sensitive Groups,10.45,38.2
East Africa,Ethiopia,Dejen,61,Moderate,1,Good,23,Good,0,Good,61,Moderate,10.1667,38.1333
East Africa,Ethiopia,Metu,61,Moderate,1,Good,13,Good,0,Good,61,Moderate,8.3,35.5833
East Africa,Ethiopia,Gelemso,106,Unhealthy for Sensitive Groups,1,Good,22,Good,0,Good,106,Unhealthy for Sensitive Groups,8.8167,40.5167
East Africa,Ethiopia,Bahir Dar,63,Moderate,1,Good,23,Good,0,Good,63,Moderate,11.6,37.3833
East Africa,Ethiopia,Jinka,38,Good,1,Good,13,Good,0,Good,38,Good,5.7833,36.5667
East Africa,Ethiopia,Dodola,46,Good,1,Good,18,Good,0,Good,46,Good,6.9833,39.1833
East Africa,Ethiopia,Werota,54,Moderate,1,Good,18,Good,0,Good,54,Moderate,11.9167,37.7
Central Africa,Gabon,Moanda,78,Moderate,3,Good,15,Good,0,Good,78,Moderate,-5.9342,12.3494
Central Africa,Gabon,Tchibanga,76,Moderate,2,Good,35,Good,0,Good,76,Moderate,-2.9333,11
Central Africa,Gabon,Libreville,131,Unhealthy for Sensitive Groups,1,Good,27,Good,1,Good,131,Unhealthy for Sensitive Groups,0.3903,9.4542
Central Africa,Gabon,Makokou,50,Good,1,Good,22,Good,0,Good,50,Good,0.5667,12.8667
Central Africa,Gabon,Bitam,45,Good,1,Good,22,Good,0,Good,45,Good,2.0833,11.4833
Central Africa,Gabon,Koulamoutou,80,Moderate,3,Good,26,Good,0,Good,80,Moderate,-1.1333,12.4833
Central Africa,Gabon,Oyem,40,Good,2,Good,23,Good,0,Good,40,Good,1.6,11.5667
Central Africa,Gabon,Mouila,84,Moderate,2,Good,13,Good,0,Good,84,Moderate,-1.8639,11.0575
West Africa,Gambia,Serekunda,158,Unhealthy,1,Good,30,Good,1,Good,158,Unhealthy,13.4333,-16.6667
West Africa,Gambia,Gunjur,153,Unhealthy,1,Good,22,Good,1,Good,153,Unhealthy,13.1833,-16.7667
West Africa,Gambia,Brikama,162,Unhealthy,1,Good,33,Good,0,Good,162,Unhealthy,13.2667,-16.65
West Africa,Gambia,Sukuta,154,Unhealthy,1,Good,21,Good,1,Good,154,Unhealthy,13.4167,-16.7
West Africa,Gambia,Bakau,155,Unhealthy,1,Good,20,Good,1,Good,155,Unhealthy,13.4833,-16.6833
West Africa,Gambia,Farafenni,111,Unhealthy for Sensitive Groups,1,Good,24,Good,1,Good,111,Unhealthy for Sensitive Groups,13.5667,-15.6
West Africa,Ghana,Apam,104,Unhealthy for Sensitive Groups,2,Good,14,Good,1,Good,104,Unhealthy for Sensitive Groups,5.2789,-0.7397
West Africa,Ghana,Begoro,105,Unhealthy for Sensitive Groups,2,Good,13,Good,2,Good,105,Unhealthy for Sensitive Groups,6.3833,-0.3833
West Africa,Ghana,Mumford,74,Moderate,2,Good,17,Good,1,Good,74,Moderate,5.2625,-0.7578
West Africa,Ghana,Kintampo,35,Good,1,Good,23,Good,0,Good,35,Good,8.0522,-1.7347
West Africa,Ghana,Anloga,22,Good,0,Good,21,Good,0,Good,22,Good,5.7919,0.9003
West Africa,Ghana,Asamankese,37,Good,1,Good,23,Good,0,Good,37,Good,5.8667,-0.6667
West Africa,Ghana,Axim,33,Good,1,Good,23,Good,0,Good,33,Good,4.8667,-2.2333
West Africa,Ghana,Tema,120,Unhealthy for Sensitive Groups,3,Good,10,Good,3,Good,120,Unhealthy for Sensitive Groups,5.6667,-0.0167
West Africa,Ghana,Konongo,58,Moderate,2,Good,16,Good,1,Good,58,Moderate,6.6167,-1.2167
West Africa,Ghana,Shama,31,Good,1,Good,23,Good,0,Good,31,Good,5.0167,-1.6333
West Africa,Ghana,Elmina,29,Good,0,Good,23,Good,0,Good,29,Good,5.0833,-1.35
West Africa,Ghana,Swedru,89,Moderate,1,Good,19,Good,0,Good,89,Moderate,5.5306,-0.7028
West Africa,Ghana,Mampong,39,Good,1,Good,25,Good,0,Good,39,Good,7.0667,-1.4
West Africa,Ghana,Yendi,50,Good,2,Good,9,Good,1,Good,50,Good,9.4324,-0.0043
West Africa,Ghana,Cape Coast,81,Moderate,1,Good,21,Good,0,Good,81,Moderate,5.1,-1.25
West Africa,Ghana,Agogo,39,Good,1,Good,24,Good,0,Good,39,Good,6.8,-1.0833
West Africa,Ghana,Oda,57,Moderate,1,Good,15,Good,1,Good,57,Moderate,5.9236,-0.9883
West Africa,Ghana,Bechem,60,Moderate,2,Good,15,Good,1,Good,60,Moderate,7.0833,-2.0167
West Africa,Ghana,Accra,76,Moderate,1,Good,20,Good,1,Good,76,Moderate,5.55,-0.2
West Africa,Ghana,Prestea,80,Moderate,1,Good,16,Good,0,Good,80,Moderate,5.4333,-2.15
West Africa,Ghana,Ho,45,Good,1,Good,26,Good,0,Good,45,Good,6.6119,0.4703
West Africa,Ghana,Salaga,55,Moderate,2,Good,9,Good,0,Good,55,Moderate,8.55,-0.5167
West Africa,Ghana,Savelugu,52,Moderate,2,Good,5,Good,1,Good,52,Moderate,9.6167,-0.8333
West Africa,Ghana,Tafo,39,Good,1,Good,24,Good,0,Good,39,Good,6.7358,-1.6081
West Africa,Ghana,Hohoe,49,Good,1,Good,19,Good,0,Good,49,Good,7.149,0.4746
West Africa,Ghana,Saltpond,39,Good,1,Good,23,Good,0,Good,39,Good,5.2,-1.0667
West Africa,Ghana,Akropong,110,Unhealthy for Sensitive Groups,3,Good,14,Good,2,Good,110,Unhealthy for Sensitive Groups,5.9742,-0.0881
West Africa,Ghana,Aflao,77,Moderate,1,Good,23,Good,0,Good,77,Moderate,6.1468,1.1799
West Africa,Ghana,Tamale,56,Moderate,1,Good,17,Good,0,Good,56,Moderate,9.4075,-0.8533
West Africa,Ghana,Tarkwa,43,Good,0,Good,17,Good,0,Good,43,Good,5.3,-1.9833
West Africa,Ghana,Kumasi,79,Moderate,1,Good,18,Good,0,Good,79,Moderate,6.6667,-1.6167
West Africa,Ghana,Wa,42,Good,1,Good,22,Good,0,Good,42,Good,10.0667,-2.5
West Africa,Ghana,Kade,84,Moderate,1,Good,18,Good,1,Good,84,Moderate,6.0833,-0.8333
West Africa,Ghana,Navrongo,57,Moderate,1,Good,16,Good,0,Good,57,Moderate,10.8847,-1.0903
West Africa,Ghana,Bawku,63,Moderate,1,Good,18,Good,0,Good,63,Moderate,11.05,-0.2333
West Africa,Ghana,Berekum,65,Moderate,1,Good,19,Good,0,Good,65,Moderate,7.45,-2.5833
West Africa,Ghana,Nsawam,28,Good,1,Good,22,Good,0,Good,28,Good,5.8,-0.35
West Africa,Ghana,Akwatia,150,Unhealthy,4,Good,8,Good,3,Good,150,Unhealthy,6.05,-0.8
West Africa,Ghana,Sunyani,54,Moderate,1,Good,18,Good,0,Good,54,Moderate,7.3333,-2.3333
West Africa,Ghana,Kpandu,66,Moderate,1,Good,17,Good,1,Good,66,Moderate,7,0.3
West Africa,Ghana,Keta,55,Moderate,1,Good,24,Good,1,Good,55,Moderate,5.9167,0.9833
West Africa,Ghana,Nkawkaw,79,Moderate,1,Good,19,Good,0,Good,79,Moderate,6.55,-0.7667
West Africa,Ghana,Koforidua,106,Unhealthy for Sensitive Groups,2,Good,14,Good,2,Good,106,Unhealthy for Sensitive Groups,6.0833,-0.25
West Africa,Ghana,Bolgatanga,52,Moderate,2,Good,11,Good,1,Good,52,Moderate,10.7833,-0.85
West Africa,Ghana,Sekondi,70,Moderate,1,Good,20,Good,0,Good,70,Moderate,4.9433,-1.704
West Africa,Ghana,Ejura,38,Good,1,Good,25,Good,0,Good,38,Good,7.3833,-1.3667
West Africa,Ghana,Suhum,84,Moderate,1,Good,18,Good,1,Good,84,Moderate,6.0333,-0.45
West Africa,Ghana,Aburi,63,Moderate,1,Good,17,Good,1,Good,63,Moderate,5.85,-0.1833
West Africa,Ghana,Techiman,55,Moderate,1,Good,19,Good,0,Good,55,Moderate,7.5772,-1.9292
West Africa,Guinea,Dalaba,63,Moderate,2,Good,13,Good,0,Good,63,Moderate,10.656,-12.272
West Africa,Guinea,Kouroussa,56,Moderate,1,Good,13,Good,0,Good,56,Moderate,10.653,-9.892
West Africa,Guinea,Macenta,32,Good,1,Good,14,Good,0,Good,32,Good,8.5504,-9.48
West Africa,Guinea,Kindia,62,Moderate,1,Good,18,Good,0,Good,62,Moderate,10.0497,-12.8542
West Africa,Guinea,Pita,90,Moderate,1,Good,19,Good,0,Good,90,Moderate,11.08,-12.401
West Africa,Guinea,Beyla,46,Good,1,Good,17,Good,0,Good,46,Good,8.6833,-8.6333
West Africa,Guinea,Kankan,63,Moderate,1,Good,16,Good,0,Good,63,Moderate,10.3833,-9.3
West Africa,Guinea,Dabola,51,Moderate,1,Good,12,Good,0,Good,51,Moderate,10.75,-11.1167
West Africa,Guinea,Koundara,153,Unhealthy,1,Good,20,Good,0,Good,153,Unhealthy,12.48,-13.296
West Africa,Guinea,Kissidougou,25,Good,1,Good,16,Good,0,Good,25,Good,9.1905,-10.12
West Africa,Guinea,Siguiri,56,Moderate,1,Good,21,Good,0,Good,56,Moderate,11.4189,-9.1644
West Africa,Guinea,Mamou,32,Good,1,Good,16,Good,0,Good,32,Good,10.3833,-12.0833
West Africa,Guinea-Bissau,Cacheu,120,Unhealthy for Sensitive Groups,1,Good,27,Good,1,Good,120,Unhealthy for Sensitive Groups,12.2667,-16.1667
East Africa,Kenya,Eldama Ravine,78,Moderate,3,Good,25,Good,1,Good,78,Moderate,0.05,35.7167
East Africa,Kenya,Naivasha,60,Moderate,2,Good,23,Good,0,Good,60,Moderate,-0.7167,36.4333
East Africa,Kenya,Wundanyi,40,Good,1,Good,14,Good,0,Good,40,Good,-3.3983,38.3603
East Africa,Kenya,Homa Bay,117,Unhealthy for Sensitive Groups,3,Good,33,Good,1,Good,117,Unhealthy for Sensitive Groups,-0.5167,34.45
East Africa,Kenya,Kabarnet,56,Moderate,2,Good,26,Good,0,Good,56,Moderate,0.494,35.744
East Africa,Kenya,Kajiado,57,Moderate,1,Good,21,Good,0,Good,57,Moderate,-1.85,36.7833
East Africa,Kenya,Siaya,92,Moderate,3,Good,35,Good,1,Good,92,Moderate,0.0667,34.2833
East Africa,Kenya,Moyale,30,Good,0,Good,15,Good,0,Good,30,Good,3.527,39.056
East Africa,Kenya,Mombasa,51,Moderate,1,Good,24,Good,0,Good,51,Moderate,-4.05,39.6667
East Africa,Kenya,Taveta,43,Good,1,Good,18,Good,0,Good,43,Good,-3.3956,37.6761
East Africa,Kenya,Narok,21,Good,0,Good,18,Good,0,Good,21,Good,-1.0833,35.8667
East Africa,Kenya,Mandera,37,Good,0,Good,17,Good,0,Good,37,Good,3.9167,41.8333
East Africa,Kenya,Lodwar,26,Good,1,Good,16,Good,0,Good,26,Good,3.1167,35.6
East Africa,Kenya,Kapenguria,64,Moderate,2,Good,27,Good,0,Good,64,Moderate,1.2333,35.1167
East Africa,Kenya,Kerugoya,62,Moderate,2,Good,20,Good,1,Good,62,Moderate,-0.5,37.2833
East Africa,Kenya,Eldoret,74,Moderate,3,Good,31,Good,0,Good,74,Moderate,0.5167,35.2833
East Africa,Kenya,Kapsabet,110,Unhealthy for Sensitive Groups,3,Good,16,Good,3,Good,110,Unhealthy for Sensitive Groups,0.3333,35.1667
East Africa,Kenya,Thika,92,Moderate,2,Good,18,Good,1,Good,92,Moderate,-1.0396,37.09
East Africa,Kenya,Garissa,43,Good,1,Good,23,Good,0,Good,43,Good,-0.4569,39.6583
East Africa,Kenya,Machakos,71,Moderate,1,Good,17,Good,1,Good,71,Moderate,-1.5167,37.2667
East Africa,Kenya,Kisii,99,Moderate,3,Good,25,Good,1,Good,99,Moderate,-0.6833,34.7667
East Africa,Kenya,Bungoma,144,Unhealthy for Sensitive Groups,6,Good,34,Good,3,Good,144,Unhealthy for Sensitive Groups,0.5667,34.5667
East Africa,Kenya,Kericho,84,Moderate,2,Good,25,Good,1,Good,84,Moderate,-0.3692,35.2839
East Africa,Kenya,Kisumu,150,Unhealthy,10,Good,28,Good,6,Good,150,Unhealthy,-0.0833,34.7667
East Africa,Kenya,Migori,82,Moderate,2,Good,23,Good,0,Good,82,Moderate,-1.0634,34.4731
East Africa,Kenya,Mumias,150,Unhealthy,11,Good,26,Good,6,Good,150,Unhealthy,0.3333,34.4833
East Africa,Kenya,Malindi,47,Good,0,Good,25,Good,0,Good,47,Good,-3.2236,40.13
East Africa,Kenya,Voi,22,Good,0,Good,22,Good,0,Good,14,Good,-3.3906,38.5769
East Africa,Kenya,Nanyuki,72,Moderate,2,Good,16,Good,1,Good,72,Moderate,0.0167,37.0667
East Africa,Kenya,Kiambu,175,Unhealthy,10,Good,11,Good,4,Good,175,Unhealthy,-1.1667,36.8167
East Africa,Kenya,Sirari,67,Moderate,1,Good,17,Good,0,Good,67,Moderate,-1.2244,34.4383
East Africa,Kenya,Kitui,45,Good,1,Good,20,Good,0,Good,45,Good,-1.3667,38.0167
East Africa,Kenya,Nairobi,107,Unhealthy for Sensitive Groups,2,Good,15,Good,2,Good,107,Unhealthy for Sensitive Groups,-1.2864,36.8172
East Africa,Kenya,Isiolo,52,Moderate,1,Good,20,Good,0,Good,52,Moderate,0.35,37.5833
East Africa,Kenya,Marsabit,27,Good,0,Good,19,Good,0,Good,27,Good,2.3333,37.9833
East Africa,Kenya,Kilifi,57,Moderate,1,Good,25,Good,0,Good,57,Moderate,-3.6333,39.85
East Africa,Kenya,Kitale,55,Moderate,2,Good,31,Good,0,Good,55,Moderate,1.0167,35
East Africa,Kenya,Embu,63,Moderate,2,Good,23,Good,1,Good,63,Moderate,-0.5389,37.4583
East Africa,Kenya,Kakamega,134,Unhealthy for Sensitive Groups,11,Good,24,Good,6,Good,134,Unhealthy for Sensitive Groups,0.2822,34.754
East Africa,Kenya,Maralal,60,Moderate,1,Good,14,Good,1,Good,60,Moderate,1.1,36.7
East Africa,Kenya,Nakuru,84,Moderate,2,Good,12,Good,1,Good,84,Moderate,-0.3,36.0667
East Africa,Kenya,Mwingi,23,Good,1,Good,23,Good,0,Good,23,Good,-0.9333,38.05
East Africa,Kenya,Nyeri,150,Unhealthy,4,Good,19,Good,3,Good,150,Unhealthy,-0.4167,36.95
East Africa,Kenya,Wajir,20,Good,0,Good,19,Good,0,Good,20,Good,1.75,40.05
East Africa,Kenya,Molo,60,Moderate,2,Good,26,Good,0,Good,60,Moderate,-0.25,35.7333
Southern Africa,Kingdom of Eswatini,Manzini,75,Moderate,3,Good,15,Good,1,Good,75,Moderate,-26.4833,31.3667
Southern Africa,Kingdom of Eswatini,Mbabane,114,Unhealthy for Sensitive Groups,2,Good,21,Good,3,Good,114,Unhealthy for Sensitive Groups,-26.3208,31.1617
Southern Africa,Lesotho,Mafeteng,117,Unhealthy for Sensitive Groups,4,Good,14,Good,7,Good,117,Unhealthy for Sensitive Groups,-29.8167,27.25
Southern Africa,Lesotho,Maseru,134,Unhealthy for Sensitive Groups,6,Good,5,Good,3,Good,134,Unhealthy for Sensitive Groups,-29.31,27.48
Southern Africa,Lesotho,Teyateyaneng,65,Moderate,2,Good,23,Good,1,Good,65,Moderate,-29.1511,27.7425
Southern Africa,Lesotho,Quthing,77,Moderate,1,Good,9,Good,2,Good,77,Moderate,-30.4001,27.7002
West Africa,Liberia,Bensonville,56,Moderate,1,Good,18,Good,0,Good,56,Moderate,6.4456,-10.6097
West Africa,Liberia,Ganta,47,Good,1,Good,11,Good,0,Good,47,Good,7.2375,-8.9814
West Africa,Liberia,Harper,31,Good,0,Good,27,Good,0,Good,31,Good,4.3667,-7.7167
West Africa,Liberia,Zwedru,17,Good,0,Good,17,Good,0,Good,16,Good,6.0667,-8.1333
West Africa,Liberia,Buchanan,40,Good,1,Good,23,Good,0,Good,40,Good,5.8808,-10.0467
West Africa,Liberia,Monrovia,60,Moderate,1,Good,17,Good,0,Good,60,Moderate,6.3133,-10.8014
West Africa,Liberia,Robertsport,21,Good,1,Good,21,Good,0,Good,18,Good,6.75,-11.3667
West Africa,Liberia,Gbarnga,21,Good,0,Good,17,Good,0,Good,21,Good,6.998,-9.473
North Africa,Libya,Surt,68,Moderate,1,Good,39,Good,0,Good,68,Moderate,31.205,16.5886
North Africa,Libya,Mizdah,155,Unhealthy,1,Good,31,Good,0,Good,155,Unhealthy,31.445,12.9831
North Africa,Libya,Yafran,69,Moderate,1,Good,69,Moderate,1,Good,66,Moderate,32.0629,12.5267
North Africa,Libya,Benghazi,49,Good,1,Good,49,Good,1,Good,24,Good,32.1167,20.0667
North Africa,Libya,Darnah,53,Moderate,1,Good,53,Moderate,0,Good,33,Good,32.7667,22.6333
Island,Madagascar,Ambovombe,26,Good,0,Good,26,Good,0,Good,20,Good,-25.1764,46.0833
Island,Madagascar,Antalaha,22,Good,0,Good,22,Good,0,Good,20,Good,-14.8833,50.25
Island,Madagascar,Morondava,64,Moderate,1,Good,22,Good,0,Good,64,Moderate,-20.2847,44.3175
Island,Madagascar,Andapa,23,Good,0,Good,23,Good,0,Good,10,Good,-14.65,49.65
Island,Madagascar,Sambava,22,Good,0,Good,22,Good,0,Good,15,Good,-14.2667,50.1667
Island,Madagascar,Ikalamavony,22,Good,0,Good,22,Good,0,Good,14,Good,-21.15,46.5833
Island,Madagascar,Maroantsetra,22,Good,0,Good,22,Good,0,Good,7,Good,-15.4333,49.75
Island,Madagascar,Mahanoro,53,Moderate,2,Good,20,Good,0,Good,53,Moderate,-19.9,48.8
Island,Madagascar,Fianarantsoa,47,Good,1,Good,17,Good,0,Good,47,Good,-21.4536,47.0858
Island,Madagascar,Marovoay,47,Good,1,Good,21,Good,0,Good,47,Good,-16.1111,46.6439
Island,Madagascar,Ambatondrazaka,20,Good,0,Good,20,Good,0,Good,12,Good,-17.8256,48.4289
Island,Madagascar,Antsirabe,52,Moderate,1,Good,22,Good,0,Good,52,Moderate,-19.8667,47.0333
Island,Madagascar,Manakara,65,Moderate,2,Good,19,Good,0,Good,65,Moderate,-22.15,48
Island,Madagascar,Ambanja,20,Good,0,Good,16,Good,0,Good,20,Good,-13.6786,48.4522
Island,Madagascar,Antananarivo,28,Good,1,Good,22,Good,0,Good,28,Good,-18.9333,47.5167
Island,Madagascar,Marolambo,22,Good,0,Good,22,Good,0,Good,13,Good,-20.05,48.1167
Island,Madagascar,Antsohihy,15,Good,1,Good,15,Good,0,Good,14,Good,-14.8762,47.9834
Island,Madagascar,Ifanadiana,73,Moderate,2,Good,9,Good,1,Good,73,Moderate,-21.3,47.6333
Island,Madagascar,Ambalavao,41,Good,1,Good,20,Good,0,Good,41,Good,-21.8333,46.9333
Island,Madagascar,Ambilobe,23,Good,0,Good,23,Good,0,Good,18,Good,-13.2,49.05
Island,Madagascar,Miandrivazo,65,Moderate,2,Good,18,Good,0,Good,65,Moderate,-19.5239,45.4573
Island,Madagascar,Bealanana,22,Good,0,Good,22,Good,0,Good,7,Good,-14.55,48.7333
Island,Madagascar,Fandriana,57,Moderate,1,Good,14,Good,0,Good,57,Moderate,-20.2333,47.3833
Island,Madagascar,Ambatolampy,21,Good,0,Good,21,Good,0,Good,21,Good,-19.3861,47.4292
Island,Madagascar,Fenoarivo Atsinanana,41,Good,1,Good,16,Good,0,Good,41,Good,-17.3814,49.4092
Island,Madagascar,Ampanihy,26,Good,0,Good,26,Good,0,Good,26,Good,-24.6833,44.75
Island,Madagascar,Sakaraha,29,Good,0,Good,23,Good,0,Good,29,Good,-22.9167,44.5497
Island,Madagascar,Faratsiho,25,Good,0,Good,25,Good,0,Good,20,Good,-19.4,46.95
Island,Madagascar,Fenoarivo,23,Good,1,Good,23,Good,0,Good,23,Good,-18.9333,47.4333
Island,Madagascar,Soanierana Ivongo,24,Good,0,Good,24,Good,0,Good,11,Good,-16.9167,49.5833
Island,Madagascar,Anjozorobe,22,Good,0,Good,22,Good,0,Good,17,Good,-18.4033,47.85
Island,Madagascar,Antanifotsy,23,Good,0,Good,21,Good,0,Good,23,Good,-19.68,47.33
Island,Madagascar,Ambositra,20,Good,0,Good,20,Good,0,Good,10,Good,-20.5167,47.25
Island,Madagascar,Nosy Varika,25,Good,0,Good,25,Good,0,Good,21,Good,-20.5833,48.5333
Island,Madagascar,Vondrozo,25,Good,0,Good,25,Good,0,Good,20,Good,-22.8206,47.3217
Island,Madagascar,Vangaindrano,28,Good,0,Good,28,Good,0,Good,14,Good,-23.35,47.6
Island,Madagascar,Andilamena,22,Good,0,Good,22,Good,0,Good,12,Good,-17.0167,48.5833
Island,Madagascar,Betafo,25,Good,1,Good,25,Good,0,Good,20,Good,-19.84,46.855
Island,Madagascar,Soavinandriana,44,Good,1,Good,21,Good,0,Good,44,Good,-19.1667,46.7333
Island,Madagascar,Arivonimamo,21,Good,0,Good,21,Good,0,Good,17,Good,-19.0333,47.1667
Island,Madagascar,Vavatenina,35,Good,1,Good,16,Good,0,Good,35,Good,-17.4667,49.2
Island,Madagascar,Tsiroanomandidy,29,Good,0,Good,22,Good,0,Good,29,Good,-18.7698,46.05
Island,Madagascar,Mananjary,24,Good,0,Good,24,Good,0,Good,11,Good,-21.2311,48.3419
Island,Madagascar,Ihosy,21,Good,0,Good,21,Good,0,Good,7,Good,-22.4036,46.1258
Island,Madagascar,Ikongo,25,Good,1,Good,21,Good,0,Good,25,Good,-21.8833,47.4333
Island,Madagascar,Farafangana,42,Good,1,Good,19,Good,0,Good,42,Good,-22.8167,47.8167
Island,Madagascar,Moramanga,21,Good,0,Good,21,Good,0,Good,10,Good,-18.9469,48.2303
Island,Madagascar,Toamasina,24,Good,0,Good,24,Good,0,Good,10,Good,-18.15,49.4167
Island,Madagascar,Amparafaravola,22,Good,0,Good,22,Good,0,Good,10,Good,-17.5833,48.2167
Island,Madagascar,Mahajanga,25,Good,0,Good,25,Good,0,Good,18,Good,-15.7167,46.3167
Island,Madagascar,Tsaratanana,41,Good,1,Good,19,Good,0,Good,41,Good,-16.7972,47.6528
Island,Madagascar,Amboasary,25,Good,0,Good,24,Good,0,Good,25,Good,-25.05,46.3833
Southern Africa,Malawi,Rumphi,28,Good,0,Good,19,Good,0,Good,28,Good,-11.0167,33.8667
Southern Africa,Malawi,Lilongwe,33,Good,0,Good,19,Good,0,Good,33,Good,-13.9833,33.7833
Southern Africa,Malawi,Ntcheu,23,Good,0,Good,23,Good,0,Good,21,Good,-14.8333,34.6667
Southern Africa,Malawi,Luchenza,62,Moderate,1,Good,21,Good,0,Good,62,Moderate,-16.0167,35.3
Southern Africa,Malawi,Blantyre,53,Moderate,2,Good,24,Good,0,Good,53,Moderate,-15.7861,35.0058
Southern Africa,Malawi,Mzimba,37,Good,0,Good,17,Good,0,Good,37,Good,-11.9,33.6
Southern Africa,Malawi,Nkhotakota,59,Moderate,1,Good,19,Good,0,Good,59,Moderate,-12.9167,34.3
Southern Africa,Malawi,Nsanje,32,Good,0,Good,22,Good,0,Good,32,Good,-16.9167,35.2667
Southern Africa,Malawi,Nkhata Bay,53,Moderate,1,Good,20,Good,0,Good,53,Moderate,-11.6,34.3
Southern Africa,Malawi,Mulanje,58,Moderate,1,Good,20,Good,0,Good,58,Moderate,-16.0258,35.5081
Southern Africa,Malawi,Mchinji,39,Good,1,Good,21,Good,0,Good,39,Good,-13.8167,32.9
Southern Africa,Malawi,Zomba,59,Moderate,1,Good,23,Good,0,Good,59,Moderate,-15.3833,35.3333
Southern Africa,Malawi,Monkey Bay,55,Moderate,1,Good,20,Good,0,Good,55,Moderate,-14.0833,34.9167
Southern Africa,Malawi,Liwonde,64,Moderate,1,Good,20,Good,0,Good,64,Moderate,-15.0667,35.2333
Southern Africa,Malawi,Mponela,50,Good,1,Good,19,Good,0,Good,50,Good,-13.5167,33.7167
Southern Africa,Malawi,Karonga,40,Good,1,Good,21,Good,0,Good,40,Good,-9.9333,33.9333
Southern Africa,Malawi,Mangochi,70,Moderate,2,Good,25,Good,0,Good,70,Moderate,-14.4667,35.2667
Southern Africa,Malawi,Dedza,29,Good,0,Good,22,Good,0,Good,29,Good,-14.3667,34.3333
Southern Africa,Malawi,Balaka,41,Good,1,Good,22,Good,0,Good,41,Good,-14.9889,34.9591
Southern Africa,Malawi,Kasungu,47,Good,1,Good,18,Good,0,Good,47,Good,-13.0333,33.4833
Southern Africa,Malawi,Salima,62,Moderate,1,Good,19,Good,0,Good,62,Moderate,-13.7833,34.4333
West Africa,Mali,Bamako,72,Moderate,2,Good,15,Good,0,Good,72,Moderate,12.6458,-7.9922
West Africa,Mali,Banamba,89,Moderate,1,Good,22,Good,1,Good,89,Moderate,13.55,-7.45
West Africa,Mali,Nioro,182,Unhealthy,1,Good,37,Good,0,Good,182,Unhealthy,15.1833,-9.55
West Africa,Mali,Kidal,111,Unhealthy for Sensitive Groups,1,Good,20,Good,0,Good,111,Unhealthy for Sensitive Groups,18.4389,1.4083
West Africa,Mali,Koutiala,46,Good,1,Good,14,Good,0,Good,46,Good,12.3833,-5.4667
West Africa,Mali,Koulikoro,52,Moderate,1,Good,10,Good,0,Good,52,Moderate,12.8833,-7.55
West Africa,Mali,Kayes,113,Unhealthy for Sensitive Groups,1,Good,28,Good,1,Good,113,Unhealthy for Sensitive Groups,14.45,-11.4167
West Africa,Mali,San,53,Moderate,1,Good,17,Good,0,Good,53,Moderate,13.3004,-4.9
West Africa,Mali,Kati,79,Moderate,1,Good,23,Good,0,Good,79,Moderate,12.7504,-8.08
West Africa,Mali,Bougouni,89,Moderate,1,Good,16,Good,0,Good,89,Moderate,11.4167,-7.4833
West Africa,Mali,Markala,74,Moderate,1,Good,16,Good,0,Good,74,Moderate,13.6739,-6.075
West Africa,Mali,Mopti,96,Moderate,1,Good,17,Good,1,Good,96,Moderate,14.49,-4.18
West Africa,Mali,Gao,162,Unhealthy,1,Good,45,Good,0,Good,162,Unhealthy,16.2667,-0.05
West Africa,Mali,Sikasso,53,Moderate,1,Good,14,Good,0,Good,53,Moderate,11.3167,-5.6667
West Africa,Mali,Kangaba,42,Good,1,Good,14,Good,0,Good,42,Good,11.9333,-8.4167
West Africa,Mali,Nara,164,Unhealthy,1,Good,37,Good,0,Good,164,Unhealthy,34.6844,135.805
West Africa,Mauritania,Nouadhibou,157,Unhealthy,0,Good,36,Good,0,Good,157,Unhealthy,20.9333,-17.0333
West Africa,Mauritania,Nouakchott,166,Unhealthy,1,Good,22,Good,0,Good,166,Unhealthy,18.0858,-15.9785
West Africa,Mauritania,Atar,169,Unhealthy,1,Good,32,Good,0,Good,169,Unhealthy,20.5167,-13.05
Island,Mauritius,Le Hochet,55,Moderate,1,Good,27,Good,0,Good,55,Moderate,-20.135,57.5211
Island,Mauritius,Surinam,29,Good,0,Good,29,Good,0,Good,24,Good,-20.5139,57.5111
Island,Mauritius,Bel Air,60,Moderate,1,Good,27,Good,0,Good,60,Moderate,-20.2582,57.7545
Island,Mauritius,Plaine Magnien,55,Moderate,1,Good,27,Good,0,Good,55,Moderate,-20.4286,57.6531
Island,Mauritius,Lalmatie,31,Good,0,Good,28,Good,0,Good,31,Good,-20.0184,57.5802
Island,Mauritius,Bambous,56,Moderate,1,Good,27,Good,0,Good,56,Moderate,-20.26,57.4148
Island,Mauritius,Grand Baie,61,Moderate,1,Good,27,Good,0,Good,61,Moderate,-20.0184,57.5802
Island,Mauritius,Curepipe,29,Good,0,Good,29,Good,0,Good,28,Good,-20.3188,57.5263
Island,Mauritius,Quatre Bornes,39,Good,0,Good,30,Good,0,Good,39,Good,-20.2654,57.4791
Island,Mauritius,Goodlands,55,Moderate,0,Good,27,Good,0,Good,55,Moderate,-20.035,57.6431
Island,Mauritius,Port Louis,39,Good,0,Good,30,Good,0,Good,39,Good,-20.1644,57.5042
Island,Mauritius,Rose Belle,40,Good,0,Good,30,Good,0,Good,40,Good,-20.4025,57.6061
North Africa,Morocco,Mrirt,59,Moderate,2,Good,16,Good,4,Good,59,Moderate,33.1667,-5.5667
North Africa,Morocco,Martil,39,Good,1,Good,39,Good,4,Good,38,Good,35.6167,-5.2667
North Africa,Morocco,Tiznit,52,Moderate,1,Good,40,Good,0,Good,52,Moderate,29.7167,-9.7167
North Africa,Morocco,Rabat,83,Moderate,3,Good,23,Good,15,Good,83,Moderate,34.0209,-6.8416
North Africa,Morocco,Kenitra,49,Good,1,Good,32,Good,6,Good,49,Good,34.25,-6.5833
North Africa,Morocco,Casablanca,37,Good,1,Good,37,Good,0,Good,32,Good,33.5333,-7.5833
North Africa,Morocco,Tangier,38,Good,1,Good,38,Good,2,Good,26,Good,35.7767,-5.8039
North Africa,Morocco,Nador,43,Good,1,Good,43,Good,0,Good,36,Good,35.1667,-2.9333
North Africa,Morocco,Agadir,41,Good,1,Good,23,Good,2,Good,41,Good,30.4333,-9.6
North Africa,Morocco,Asilah,52,Moderate,1,Good,28,Good,8,Good,52,Moderate,35.4667,-6.0333
Southern Africa,Mozambique,Nampula,20,Good,0,Good,20,Good,0,Good,19,Good,-15.1167,39.2667
Southern Africa,Mozambique,Chimoio,35,Good,1,Good,20,Good,0,Good,35,Good,-19.1167,33.45
Southern Africa,Mozambique,Macia,43,Good,1,Good,18,Good,0,Good,43,Good,-25.0333,33.1
Southern Africa,Mozambique,Maputo,41,Good,1,Good,28,Good,0,Good,41,Good,-25.9667,32.5833
Southern Africa,Mozambique,Pemba,32,Good,0,Good,22,Good,0,Good,32,Good,-12.9667,40.55
Southern Africa,Mozambique,Inhambane,38,Good,1,Good,24,Good,0,Good,38,Good,-23.865,35.3833
Southern Africa,Mozambique,Montepuez,25,Good,0,Good,20,Good,0,Good,25,Good,-13.1167,39
Southern Africa,Mozambique,Cuamba,20,Good,0,Good,20,Good,0,Good,16,Good,-14.8167,36.55
Southern Africa,Mozambique,Beira,28,Good,1,Good,21,Good,0,Good,28,Good,-19.8333,34.85
Southern Africa,Mozambique,Lichinga,27,Good,0,Good,22,Good,0,Good,27,Good,-13.3167,35.2333
Southern Africa,Mozambique,Quelimane,24,Good,0,Good,24,Good,0,Good,23,Good,-17.8764,36.8872
Southern Africa,Mozambique,Matola,66,Moderate,2,Good,20,Good,1,Good,66,Moderate,-25.9667,32.4667
Southern Africa,Mozambique,Dondo,45,Good,1,Good,18,Good,0,Good,45,Good,-19.6167,34.75
Southern Africa,Mozambique,Tete,54,Moderate,1,Good,21,Good,0,Good,54,Moderate,-16.1667,33.6
Southern Africa,Mozambique,Mocuba,23,Good,0,Good,23,Good,0,Good,19,Good,-16.85,36.9833
Southern Africa,Mozambique,Manjacaze,44,Good,0,Good,30,Good,0,Good,44,Good,-24.7117,33.8828
Southern Africa,Mozambique,Manica,45,Good,2,Good,16,Good,0,Good,45,Good,-18.9344,32.8756
Southern Africa,Mozambique,Chibuto,46,Good,1,Good,19,Good,0,Good,46,Good,-24.6833,33.5333
Southern Africa,Namibia,Gobabis,19,Good,0,Good,18,Good,0,Good,19,Good,-22.4333,18.9667
Southern Africa,Namibia,Tsumeb,43,Good,1,Good,19,Good,0,Good,43,Good,-19.25,17.7
Southern Africa,Namibia,Katima Mulilo,19,Good,0,Good,19,Good,0,Good,17,Good,-17.5039,24.275
Southern Africa,Namibia,Oshakati,43,Good,0,Good,32,Good,0,Good,43,Good,-17.7833,15.6995
Southern Africa,Namibia,Otjiwarongo,29,Good,0,Good,19,Good,0,Good,29,Good,-20.4642,16.6528
Southern Africa,Namibia,Grootfontein,32,Good,1,Good,32,Good,0,Good,14,Good,-19.5658,18.1036
Southern Africa,Namibia,Okahandja,51,Moderate,1,Good,24,Good,0,Good,51,Moderate,-21.9833,16.9167
Southern Africa,Namibia,Mariental,97,Moderate,1,Good,20,Good,0,Good,97,Moderate,-24.6333,17.9667
Southern Africa,Namibia,Rundu,27,Good,0,Good,14,Good,0,Good,27,Good,-17.9167,19.7667
Southern Africa,Namibia,Swakopmund,204,Very Unhealthy,1,Good,22,Good,0,Good,204,Very Unhealthy,-22.6833,14.5333
Southern Africa,Namibia,Windhoek,50,Good,1,Good,22,Good,0,Good,50,Good,-22.57,17.0836
Southern Africa,Namibia,Keetmanshoop,123,Unhealthy for Sensitive Groups,0,Good,18,Good,0,Good,123,Unhealthy for Sensitive Groups,-26.5786,18.1333
Southern Africa,Namibia,Omaruru,35,Good,0,Good,21,Good,0,Good,35,Good,-21.4333,15.9333
West Africa,Niger,Maradi,41,Good,2,Good,25,Good,1,Good,41,Good,13.4833,7.1
West Africa,Niger,Arlit,164,Unhealthy,1,Good,20,Good,0,Good,164,Unhealthy,18.7333,7.3833
West Africa,Niger,Niamey,56,Moderate,2,Good,24,Good,1,Good,56,Moderate,13.515,2.1175
West Africa,Niger,Agadez,152,Unhealthy,1,Good,37,Good,0,Good,152,Unhealthy,16.9959,7.9828
West Africa,Niger,Gaya,45,Good,1,Good,24,Good,0,Good,45,Good,24.75,85.01
West Africa,Niger,Diffa,70,Moderate,2,Good,32,Good,1,Good,70,Moderate,13.3171,12.6089
West Africa,Niger,Dosso,69,Moderate,1,Good,36,Good,0,Good,69,Moderate,13.05,3.2
West Africa,Niger,Kollo,39,Good,2,Good,18,Good,1,Good,39,Good,13.0167,1.8833
West Africa,Niger,Madaoua,44,Good,2,Good,26,Good,1,Good,44,Good,14.0762,5.9586
West Africa,Niger,Zinder,117,Unhealthy for Sensitive Groups,2,Good,33,Good,1,Good,117,Unhealthy for Sensitive Groups,13.8053,8.9883
West Africa,Niger,Tahoua,71,Moderate,2,Good,30,Good,2,Good,71,Moderate,14.8903,5.2642
West Africa,Niger,Ayorou,87,Moderate,1,Good,20,Good,1,Good,87,Moderate,14.735,0.92
West Africa,Nigeria,Ilobu,133,Unhealthy for Sensitive Groups,4,Good,23,Good,3,Good,133,Unhealthy for Sensitive Groups,7.84,4.486
West Africa,Nigeria,Iseyin,90,Moderate,3,Good,18,Good,2,Good,90,Moderate,7.9667,3.6
West Africa,Nigeria,Oyo,80,Moderate,2,Good,22,Good,1,Good,80,Moderate,7.85,3.933
West Africa,Nigeria,Kano,138,Unhealthy for Sensitive Groups,4,Good,25,Good,4,Good,138,Unhealthy for Sensitive Groups,12,8.5167
West Africa,Nigeria,Mubi,48,Good,2,Good,21,Good,0,Good,48,Good,10.2604,13.2606
West Africa,Nigeria,Nkpor,166,Unhealthy,11,Good,18,Good,8,Good,166,Unhealthy,6.15,6.8333
West Africa,Nigeria,Enugu,170,Unhealthy,8,Good,15,Good,6,Good,170,Unhealthy,6.4528,7.5111
West Africa,Nigeria,Bauchi,91,Moderate,2,Good,40,Good,0,Good,91,Moderate,10.3158,9.8442
West Africa,Nigeria,Abuja,73,Moderate,2,Good,36,Good,0,Good,73,Moderate,9.0667,7.4833
West Africa,Nigeria,Jos,64,Moderate,2,Good,31,Good,0,Good,64,Moderate,9.9167,8.8903
West Africa,Nigeria,Sapele,101,Unhealthy for Sensitive Groups,4,Good,21,Good,3,Good,101,Unhealthy for Sensitive Groups,5.8261,5.6536
West Africa,Nigeria,Idah,60,Moderate,1,Good,21,Good,1,Good,60,Moderate,7.0833,6.75
West Africa,Nigeria,Keffi,71,Moderate,2,Good,35,Good,0,Good,71,Moderate,8.8464,7.8733
West Africa,Nigeria,Iwo,70,Moderate,3,Good,21,Good,2,Good,70,Moderate,7.6333,4.1833
West Africa,Nigeria,Numan,70,Moderate,2,Good,37,Good,0,Good,70,Moderate,9.4536,11.8367
West Africa,Nigeria,Asaba,89,Moderate,3,Good,18,Good,3,Good,89,Moderate,6.1833,6.75
West Africa,Nigeria,Lafia,117,Unhealthy for Sensitive Groups,4,Good,20,Good,1,Good,117,Unhealthy for Sensitive Groups,8.5,8.5167
West Africa,Nigeria,Damaturu,98,Moderate,2,Good,46,Good,0,Good,98,Moderate,11.7444,11.9611
West Africa,Nigeria,Dutse,90,Moderate,2,Good,61,Moderate,0,Good,90,Moderate,11.8283,9.3158
West Africa,Nigeria,Ugep,98,Moderate,3,Good,19,Good,2,Good,98,Moderate,5.8,8.0833
West Africa,Nigeria,Ikare,62,Moderate,2,Good,24,Good,1,Good,62,Moderate,7.5167,5.75
West Africa,Nigeria,Bida,101,Unhealthy for Sensitive Groups,3,Good,22,Good,1,Good,101,Unhealthy for Sensitive Groups,9.0804,6.01
West Africa,Nigeria,Birnin Kebbi,61,Moderate,2,Good,13,Good,3,Good,61,Moderate,12.4504,4.1999
West Africa,Nigeria,Aba,196,Unhealthy,13,Good,6,Good,13,Good,196,Unhealthy,5.1167,7.3667
West Africa,Nigeria,Maiduguri,95,Moderate,3,Good,18,Good,2,Good,95,Moderate,11.8333,13.15
West Africa,Nigeria,Jalingo,65,Moderate,3,Good,16,Good,0,Good,65,Moderate,8.9195,11.3264
West Africa,Nigeria,Katsina,79,Moderate,2,Good,45,Good,0,Good,79,Moderate,12.9889,7.6008
West Africa,Nigeria,Gombe,60,Moderate,3,Good,24,Good,0,Good,60,Moderate,10.2904,11.17
West Africa,Nigeria,Kaduna,84,Moderate,2,Good,31,Good,0,Good,84,Moderate,10.5167,7.4333
West Africa,Nigeria,Biu,53,Moderate,2,Good,21,Good,0,Good,53,Moderate,10.6111,12.195
West Africa,Nigeria,Lokoja,59,Moderate,1,Good,34,Good,0,Good,59,Moderate,7.8019,6.7442
West Africa,Nigeria,Gusau,53,Moderate,2,Good,26,Good,0,Good,53,Moderate,12.15,6.6667
West Africa,Nigeria,Potiskum,85,Moderate,3,Good,20,Good,1,Good,85,Moderate,11.7104,11.08
West Africa,Nigeria,Nnewi,154,Unhealthy,7,Good,16,Good,7,Good,154,Unhealthy,6.0167,6.9167
West Africa,Nigeria,Nsukka,68,Moderate,2,Good,39,Good,0,Good,68,Moderate,6.8567,7.3958
West Africa,Nigeria,Ondo,72,Moderate,2,Good,38,Good,0,Good,72,Moderate,7.0833,4.8333
West Africa,Nigeria,Ilorin,108,Unhealthy for Sensitive Groups,3,Good,26,Good,1,Good,108,Unhealthy for Sensitive Groups,8.5,4.55
West Africa,Nigeria,Kumo,57,Moderate,2,Good,21,Good,0,Good,57,Moderate,10.0431,11.2183
West Africa,Nigeria,Sokoto,65,Moderate,2,Good,29,Good,1,Good,65,Moderate,13.0622,5.2339
West Africa,Nigeria,Nguru,86,Moderate,3,Good,36,Good,1,Good,86,Moderate,12.8792,10.4525
West Africa,Nigeria,Funtua,65,Moderate,2,Good,22,Good,1,Good,65,Moderate,11.5204,7.32
West Africa,Nigeria,Gashua,94,Moderate,2,Good,35,Good,1,Good,94,Moderate,12.8681,11.0464
West Africa,Nigeria,Owerri,141,Unhealthy for Sensitive Groups,8,Good,16,Good,7,Good,141,Unhealthy for Sensitive Groups,5.4833,7.0333
West Africa,Nigeria,Shagamu,217,Very Unhealthy,12,Good,14,Good,14,Good,217,Very Unhealthy,6.8333,3.65
West Africa,Nigeria,Igboho,66,Moderate,1,Good,37,Good,0,Good,66,Moderate,8.8333,3.75
West Africa,Nigeria,Makurdi,84,Moderate,3,Good,29,Good,1,Good,84,Moderate,7.7306,8.5361
West Africa,Nigeria,Bama,87,Moderate,2,Good,29,Good,0,Good,87,Moderate,11.5189,13.6842
West Africa,Nigeria,Yola,71,Moderate,2,Good,35,Good,0,Good,71,Moderate,9.23,12.46
West Africa,Nigeria,Minna,76,Moderate,3,Good,18,Good,1,Good,76,Moderate,9.6139,6.5569
West Africa,Nigeria,Auchi,102,Unhealthy for Sensitive Groups,3,Good,22,Good,2,Good,102,Unhealthy for Sensitive Groups,7.0667,6.2667
West Africa,Nigeria,Umuahia,165,Unhealthy,9,Good,19,Good,7,Good,165,Unhealthy,5.5333,7.4833
West Africa,Nigeria,Abeokuta,162,Unhealthy,9,Good,11,Good,9,Good,162,Unhealthy,7.1608,3.3483
West Africa,Nigeria,Kontagora,69,Moderate,2,Good,38,Good,0,Good,69,Moderate,10.403,5.473
West Africa,Nigeria,Awka,154,Unhealthy,8,Good,30,Good,5,Good,154,Unhealthy,6.2,7.0667
West Africa,Nigeria,Ede,74,Moderate,2,Good,21,Good,2,Good,74,Moderate,7.7389,4.4361
West Africa,Nigeria,Warri,202,Very Unhealthy,16,Good,1,Good,8,Good,202,Very Unhealthy,5.5167,5.75
West Africa,Nigeria,Onitsha,213,Very Unhealthy,11,Good,8,Good,11,Good,213,Very Unhealthy,6.1667,6.7833
West Africa,Nigeria,Yenagoa,164,Unhealthy,8,Good,16,Good,6,Good,164,Unhealthy,4.9267,6.2676
West Africa,Nigeria,Otukpo,64,Moderate,2,Good,36,Good,0,Good,64,Moderate,7.1904,8.13
West Africa,Nigeria,Akure,76,Moderate,2,Good,24,Good,1,Good,76,Moderate,7.25,5.195
West Africa,Nigeria,Ibadan,79,Moderate,2,Good,21,Good,2,Good,79,Moderate,7.3964,3.9167
West Africa,Nigeria,Calabar,69,Moderate,3,Good,22,Good,2,Good,69,Moderate,4.9767,8.3383
West Africa,Nigeria,Kishi,59,Moderate,2,Good,21,Good,0,Good,59,Moderate,35.3364,139.1232
West Africa,Nigeria,Azare,78,Moderate,3,Good,24,Good,2,Good,78,Moderate,11.6742,10.1911
West Africa,Nigeria,Owo,63,Moderate,2,Good,31,Good,0,Good,63,Moderate,7.1961,5.5864
West Africa,Nigeria,Abakaliki,72,Moderate,2,Good,38,Good,0,Good,72,Moderate,6.3249,8.1137
West Africa,Nigeria,Port Harcourt,179,Unhealthy,9,Good,24,Good,8,Good,179,Unhealthy,4.8242,7.0336
West Africa,Nigeria,Uyo,150,Unhealthy,7,Good,22,Good,5,Good,150,Unhealthy,5.05,7.9333
West Africa,Nigeria,Zaria,78,Moderate,2,Good,43,Good,0,Good,78,Moderate,11.0667,7.7
West Africa,Nigeria,Wukari,91,Moderate,3,Good,19,Good,1,Good,91,Moderate,7.8704,9.78
East Africa,Rwanda,Gisenyi,157,Unhealthy,4,Good,17,Good,2,Good,157,Unhealthy,-1.7,29.25
East Africa,Rwanda,Gikongoro,78,Moderate,6,Good,17,Good,3,Good,78,Moderate,-2.4697,29.5814
East Africa,Rwanda,Kigali,107,Unhealthy for Sensitive Groups,2,Good,29,Good,1,Good,107,Unhealthy for Sensitive Groups,-1.9536,30.0606
East Africa,Rwanda,Rwamagana,85,Moderate,2,Good,26,Good,1,Good,85,Moderate,-1.95,30.4333
East Africa,Rwanda,Bukavu,65,Moderate,2,Good,20,Good,0,Good,65,Moderate,-2.5,28.8667
East Africa,Rwanda,Kibungo,69,Moderate,3,Good,19,Good,1,Good,69,Moderate,-2.1608,30.5442
East Africa,Rwanda,Cyangugu,56,Moderate,2,Good,24,Good,0,Good,56,Moderate,-2.4833,28.8967
East Africa,Rwanda,Ruhengeri,157,Unhealthy,2,Good,24,Good,1,Good,157,Unhealthy,-1.5,29.6333
East Africa,Rwanda,Byumba,119,Unhealthy for Sensitive Groups,2,Good,30,Good,1,Good,119,Unhealthy for Sensitive Groups,-1.5761,30.0675
East Africa,Rwanda,Kibuye,94,Moderate,4,Good,21,Good,2,Good,94,Moderate,-2.0617,29.3483
East Africa,Rwanda,Butare,87,Moderate,7,Good,16,Good,3,Good,87,Moderate,-2.6,29.75
East Africa,Rwanda,Nyanza,63,Moderate,5,Good,21,Good,2,Good,63,Moderate,-2.35,29.7333
East Africa,Rwanda,Gitarama,79,Moderate,6,Good,23,Good,2,Good,79,Moderate,-2.0696,29.76
West Africa,Senegal,Louga,176,Unhealthy,2,Good,21,Good,3,Good,176,Unhealthy,15.6167,-16.2167
West Africa,Senegal,Diourbel,154,Unhealthy,2,Good,13,Good,4,Good,154,Unhealthy,14.655,-16.2314
West Africa,Senegal,Dakar,166,Unhealthy,1,Good,21,Good,2,Good,166,Unhealthy,14.6928,-17.4467
West Africa,Senegal,Fatick,135,Unhealthy for Sensitive Groups,1,Good,28,Good,3,Good,135,Unhealthy for Sensitive Groups,14.3333,-16.4069
West Africa,Senegal,Kolda,146,Unhealthy for Sensitive Groups,2,Good,21,Good,0,Good,146,Unhealthy for Sensitive Groups,12.8833,-14.95
West Africa,Senegal,Khombole,157,Unhealthy,2,Good,26,Good,3,Good,157,Unhealthy,14.7667,-16.6833
West Africa,Senegal,Kaffrine,151,Unhealthy,1,Good,26,Good,2,Good,151,Unhealthy,14.1014,-15.5432
West Africa,Senegal,Dagana,211,Very Unhealthy,1,Good,22,Good,1,Good,211,Very Unhealthy,16.4833,-15.6
West Africa,Senegal,Bakel,168,Unhealthy,1,Good,38,Good,0,Good,168,Unhealthy,14.9042,-12.4583
West Africa,Senegal,Matam,113,Unhealthy for Sensitive Groups,1,Good,15,Good,2,Good,113,Unhealthy for Sensitive Groups,15.6167,-13.3333
West Africa,Senegal,Koungheul,140,Unhealthy for Sensitive Groups,1,Good,19,Good,1,Good,140,Unhealthy for Sensitive Groups,13.9833,-14.8
West Africa,Senegal,Pout,184,Unhealthy,2,Good,18,Good,4,Good,184,Unhealthy,14.7739,-17.0603
West Africa,Senegal,Tivaouane,183,Unhealthy,2,Good,18,Good,3,Good,183,Unhealthy,14.95,-16.8167
West Africa,Senegal,Kaolack,129,Unhealthy for Sensitive Groups,1,Good,27,Good,2,Good,129,Unhealthy for Sensitive Groups,14.1389,-16.0764
West Africa,Senegal,Bignona,122,Unhealthy for Sensitive Groups,1,Good,22,Good,1,Good,122,Unhealthy for Sensitive Groups,12.8167,-16.2333
West Africa,Senegal,Ziguinchor,153,Unhealthy,1,Good,25,Good,1,Good,153,Unhealthy,12.5833,-16.2667
West Africa,Senegal,Sokone,162,Unhealthy,2,Good,17,Good,2,Good,162,Unhealthy,13.8833,-16.3667
West Africa,Senegal,Tambacounda,115,Unhealthy for Sensitive Groups,1,Good,17,Good,0,Good,115,Unhealthy for Sensitive Groups,13.7689,-13.6672
West Africa,Sierra Leone,Port Loko,48,Good,1,Good,16,Good,0,Good,48,Good,8.7667,-12.7875
West Africa,Sierra Leone,Kenema,36,Good,1,Good,16,Good,0,Good,36,Good,7.8758,-11.1908
West Africa,Sierra Leone,Rokupr,21,Good,1,Good,20,Good,0,Good,21,Good,9.0167,-12.95
West Africa,Sierra Leone,Makeni,40,Good,1,Good,16,Good,0,Good,40,Good,8.8817,-12.0442
West Africa,Sierra Leone,Lunsar,71,Moderate,1,Good,22,Good,0,Good,71,Moderate,8.6833,-12.5333
West Africa,Sierra Leone,Magburaka,57,Moderate,1,Good,19,Good,0,Good,57,Moderate,8.7169,-11.9433
West Africa,Sierra Leone,Kabala,37,Good,1,Good,16,Good,0,Good,37,Good,9.5833,-11.55
West Africa,Sierra Leone,Freetown,27,Good,1,Good,22,Good,0,Good,27,Good,8.4844,-13.2344
West Africa,Sierra Leone,Kambia,77,Moderate,2,Good,18,Good,1,Good,77,Moderate,9.1167,-12.9167
West Africa,Sierra Leone,Segbwema,18,Good,1,Good,18,Good,0,Good,16,Good,8,-10.95
West Africa,Sierra Leone,Kailahun,40,Good,1,Good,17,Good,0,Good,40,Good,8.2772,-10.5739
West Africa,Sierra Leone,Bo,50,Good,1,Good,11,Good,0,Good,50,Good,7.9564,-11.74
West Africa,Sierra Leone,Yengema,54,Moderate,1,Good,8,Good,0,Good,54,Moderate,8.6167,-11.1667
West Africa,Sierra Leone,Koidu,34,Good,1,Good,17,Good,0,Good,34,Good,8.6439,-10.9717
East Africa,Somalia,Hobyo,58,Moderate,0,Good,21,Good,0,Good,58,Moderate,5.3514,48.5256
East Africa,Somalia,Berbera,90,Moderate,1,Good,24,Good,0,Good,90,Moderate,10.4356,45.0164
East Africa,Somalia,Hargeysa,96,Moderate,0,Good,19,Good,0,Good,96,Moderate,9.5631,44.0675
East Africa,Somalia,Xuddur,55,Moderate,0,Good,20,Good,0,Good,55,Moderate,4.12,43.8878
East Africa,Somalia,Bandarbeyla,138,Unhealthy for Sensitive Groups,0,Good,18,Good,0,Good,138,Unhealthy for Sensitive Groups,9.4833,50.8167
East Africa,Somalia,Qandala,120,Unhealthy for Sensitive Groups,0,Good,20,Good,0,Good,120,Unhealthy for Sensitive Groups,11.4711,49.8739
East Africa,Somalia,Jilib,28,Good,0,Good,20,Good,0,Good,28,Good,0.5,42.7667
East Africa,Somalia,Wanlaweyn,29,Good,0,Good,25,Good,0,Good,29,Good,2.6167,44.9
East Africa,Somalia,Eyl,73,Moderate,0,Good,19,Good,0,Good,73,Moderate,7.9667,49.85
East Africa,Somalia,Mogadishu,31,Good,0,Good,19,Good,0,Good,31,Good,2.0392,45.3419
Southern Africa,South Africa,Port Elizabeth,79,Moderate,3,Good,18,Good,5,Good,79,Moderate,-33.9581,25.6
Southern Africa,South Africa,Phalaborwa,49,Good,1,Good,31,Good,0,Good,49,Good,-23.9333,31.1167
Southern Africa,South Africa,Secunda,154,Unhealthy,2,Good,0,Good,23,Good,154,Unhealthy,-26.5161,29.2028
Southern Africa,South Africa,Brakpan,236,Very Unhealthy,16,Good,10,Good,16,Good,236,Very Unhealthy,-26.2353,28.37
Southern Africa,South Africa,Swellendam,71,Moderate,2,Good,4,Good,3,Good,71,Moderate,-34.0231,20.44
Southern Africa,South Africa,Potchefstroom,188,Unhealthy,11,Good,15,Good,15,Good,188,Unhealthy,-26.715,27.1033
Southern Africa,South Africa,Fochville,154,Unhealthy,8,Good,17,Good,12,Good,154,Unhealthy,-26.4833,27.4833
Southern Africa,South Africa,Bloemhof,48,Good,0,Good,21,Good,3,Good,48,Good,-27.65,25.59
Southern Africa,South Africa,Messina,55,Moderate,1,Good,17,Good,1,Good,55,Moderate,38.1936,15.5542
Southern Africa,South Africa,Umtata,99,Moderate,3,Good,12,Good,5,Good,99,Moderate,-31.58,28.79
Southern Africa,South Africa,Margate,56,Moderate,1,Good,26,Good,1,Good,56,Moderate,26.2466,-80.2119
Southern Africa,South Africa,Nigel,174,Unhealthy,10,Good,13,Good,13,Good,174,Unhealthy,-26.4203,28.4683
Southern Africa,South Africa,Paarl,171,Unhealthy,6,Good,15,Good,9,Good,171,Unhealthy,-33.7242,18.9558
Southern Africa,South Africa,Springbok,34,Good,0,Good,15,Good,1,Good,34,Good,-29.6667,17.8833
Southern Africa,South Africa,Stellenbosch,181,Unhealthy,11,Good,12,Good,8,Good,181,Unhealthy,-33.9367,18.8614
Southern Africa,South Africa,Breyten,53,Moderate,1,Good,18,Good,5,Good,53,Moderate,-26.3,29.9833
Southern Africa,South Africa,Brits,212,Very Unhealthy,14,Good,21,Good,17,Good,212,Very Unhealthy,-25.6344,27.7811
Southern Africa,South Africa,Klerksdorp,172,Unhealthy,9,Good,18,Good,12,Good,172,Unhealthy,-26.8667,26.6667
Southern Africa,South Africa,Louis Trichardt,33,Good,1,Good,23,Good,1,Good,33,Good,-23.05,29.9
Southern Africa,South Africa,Welkom,153,Unhealthy,7,Good,6,Good,9,Good,153,Unhealthy,-27.9831,26.7208
Southern Africa,South Africa,Benoni,123,Unhealthy for Sensitive Groups,15,Good,20,Good,12,Good,123,Unhealthy for Sensitive Groups,-26.1883,28.3206
Southern Africa,South Africa,Ulundi,90,Moderate,5,Good,27,Good,2,Good,90,Moderate,-28.335,31.4161
Southern Africa,South Africa,Stutterheim,54,Moderate,1,Good,18,Good,2,Good,54,Moderate,-32.5667,27.4167
Southern Africa,South Africa,Port Alfred,50,Good,1,Good,29,Good,0,Good,50,Good,-33.5917,26.8875
Southern Africa,South Africa,Ceres,119,Unhealthy for Sensitive Groups,3,Good,14,Good,2,Good,119,Unhealthy for Sensitive Groups,37.5952,-120.962
Southern Africa,South Africa,Orkney,182,Unhealthy,10,Good,16,Good,14,Good,182,Unhealthy,-26.9789,26.6692
Southern Africa,South Africa,Vereeniging,274,Very Unhealthy,16,Good,8,Good,19,Good,274,Very Unhealthy,-26.6736,27.9319
Southern Africa,South Africa,Pretoria,329,Hazardous,20,Good,2,Good,18,Good,329,Hazardous,-25.7461,28.1881
Southern Africa,South Africa,Saldanha,66,Moderate,1,Good,19,Good,1,Good,66,Moderate,-32.9978,17.9456
Southern Africa,South Africa,Bethlehem,59,Moderate,2,Good,20,Good,1,Good,59,Moderate,40.6266,-75.3679
Southern Africa,South Africa,Brandfort,76,Moderate,3,Good,16,Good,3,Good,76,Moderate,-28.7,26.4667
Southern Africa,South Africa,Oudtshoorn,66,Moderate,2,Good,6,Good,3,Good,66,Moderate,-33.5833,22.2
Southern Africa,South Africa,Lydenburg,46,Good,1,Good,18,Good,1,Good,46,Good,-25.096,30.446
Southern Africa,South Africa,Rustenburg,248,Very Unhealthy,17,Good,1,Good,15,Good,248,Very Unhealthy,-25.6667,27.2428
Southern Africa,South Africa,Cradock,43,Good,1,Good,23,Good,0,Good,43,Good,-32.1833,25.6167
Southern Africa,South Africa,Kimberley,67,Moderate,2,Good,10,Good,6,Good,67,Moderate,-28.7383,24.7639
Southern Africa,South Africa,Hermanus,151,Unhealthy,7,Good,14,Good,6,Good,151,Unhealthy,-34.4167,19.25
Southern Africa,South Africa,Richards Bay,61,Moderate,1,Good,24,Good,1,Good,61,Moderate,-28.7694,32.0594
Southern Africa,South Africa,Stilfontein,175,Unhealthy,10,Good,17,Good,13,Good,175,Unhealthy,-26.8428,26.7744
Southern Africa,South Africa,Prieska,81,Moderate,2,Good,17,Good,2,Good,81,Moderate,-29.6683,22.7439
Southern Africa,South Africa,Pietermaritzburg,215,Very Unhealthy,13,Good,3,Good,13,Good,215,Very Unhealthy,-29.6167,30.3833
Southern Africa,South Africa,Butterworth,72,Moderate,1,Good,26,Good,2,Good,72,Moderate,5.3992,100.3639
Southern Africa,South Africa,Vryburg,103,Unhealthy for Sensitive Groups,4,Good,22,Good,2,Good,103,Unhealthy for Sensitive Groups,-26.95,24.7472
Southern Africa,South Africa,Witbank,156,Unhealthy,3,Good,11,Good,14,Good,156,Unhealthy,-25.877,29.201
Southern Africa,South Africa,Tzaneen,55,Moderate,1,Good,26,Good,1,Good,55,Moderate,-23.8333,30.1667
Southern Africa,South Africa,Alberton,205,Very Unhealthy,41,Good,9,Good,25,Good,205,Very Unhealthy,-26.2672,28.1219
Southern Africa,South Africa,Randfontein,192,Unhealthy,7,Good,15,Good,17,Good,192,Unhealthy,-26.1797,27.7042
Southern Africa,South Africa,Springs,175,Unhealthy,7,Good,12,Good,19,Good,175,Unhealthy,-26.2547,28.4428
Southern Africa,South Africa,Malmesbury,139,Unhealthy for Sensitive Groups,5,Good,22,Good,8,Good,139,Unhealthy for Sensitive Groups,-33.45,18.7333
Southern Africa,South Africa,Cape Town,149,Unhealthy for Sensitive Groups,2,Good,15,Good,4,Good,149,Unhealthy for Sensitive Groups,-33.9253,18.4239
Southern Africa,South Africa,Bloemfontein,76,Moderate,1,Good,15,Good,4,Good,76,Moderate,-29.1167,26.2167
Southern Africa,South Africa,Allanridge,95,Moderate,2,Good,21,Good,5,Good,95,Moderate,-27.7544,26.6367
Southern Africa,South Africa,Bredasdorp,44,Good,1,Good,22,Good,1,Good,44,Good,-34.5333,20.0417
Southern Africa,South Africa,Ermelo,52,Moderate,1,Good,17,Good,5,Good,52,Moderate,52.3,5.6167
Southern Africa,South Africa,Queenstown,45,Good,1,Good,11,Good,2,Good,45,Good,-31.9,26.8833
Southern Africa,South Africa,Robertson,160,Unhealthy,9,Good,5,Good,5,Good,160,Unhealthy,-33.8,19.8833
Southern Africa,South Africa,Knysna,45,Good,1,Good,15,Good,1,Good,45,Good,-34.0356,23.0489
Southern Africa,South Africa,Boksburg,500,Hazardous,49,Good,1,Good,30,Good,500,Hazardous,-26.2125,28.2625
Southern Africa,South Africa,Standerton,84,Moderate,1,Good,13,Good,13,Good,84,Moderate,-26.95,29.25
Southern Africa,South Africa,Warrenton,33,Good,0,Good,21,Good,1,Good,33,Good,-28.1114,24.8497
Southern Africa,South Africa,Plettenberg Bay,35,Good,1,Good,19,Good,1,Good,35,Good,-34.05,23.3667
Southern Africa,South Africa,Bronkhorstspruit,156,Unhealthy,5,Good,15,Good,15,Good,156,Unhealthy,-25.805,28.7464
Southern Africa,South Africa,Lebowakgomo,168,Unhealthy,6,Good,24,Good,6,Good,168,Unhealthy,-24.2,29.5
Southern Africa,South Africa,Krugersdorp,99,Moderate,13,Good,20,Good,9,Good,99,Moderate,-26.1,27.7667
Southern Africa,South Africa,De Aar,21,Good,1,Good,16,Good,1,Good,21,Good,-30.65,24.0167
Southern Africa,South Africa,Mmabatho,72,Moderate,2,Good,34,Good,1,Good,72,Moderate,-25.85,25.6333
Southern Africa,South Africa,Nelspruit,237,Very Unhealthy,13,Good,3,Good,7,Good,237,Very Unhealthy,-25.4745,30.9703
Southern Africa,South Africa,Thabazimbi,84,Moderate,5,Good,10,Good,4,Good,84,Moderate,-24.6,27.4
Southern Africa,South Africa,Vanderbijlpark,275,Very Unhealthy,15,Good,8,Good,20,Good,275,Very Unhealthy,-26.6992,27.8356
Southern Africa,South Africa,Sasolburg,181,Unhealthy,7,Good,8,Good,19,Good,181,Unhealthy,-26.8142,27.8286
Southern Africa,South Africa,Kirkwood,83,Moderate,2,Good,13,Good,3,Good,83,Moderate,38.5788,-90.4203
Southern Africa,South Africa,East London,54,Moderate,2,Good,18,Good,3,Good,54,Moderate,-33.0175,27.9047
Southern Africa,South Africa,Bethal,63,Moderate,1,Good,16,Good,10,Good,63,Moderate,-26.45,29.45
Southern Africa,South Africa,Komatipoort,89,Moderate,3,Good,14,Good,2,Good,89,Moderate,-25.4333,31.95
Southern Africa,South Africa,Soweto,185,Unhealthy,36,Good,10,Good,22,Good,185,Unhealthy,-26.2678,27.8585
Southern Africa,South Africa,Grahamstown,66,Moderate,3,Good,33,Good,1,Good,66,Moderate,-33.2996,26.52
Southern Africa,South Africa,Kroonstad,88,Moderate,2,Good,19,Good,4,Good,88,Moderate,-27.6456,27.2317
Southern Africa,South Africa,Volksrust,85,Moderate,2,Good,14,Good,8,Good,85,Moderate,-27.3667,29.8833
Southern Africa,South Africa,Johannesburg,121,Unhealthy for Sensitive Groups,19,Good,19,Good,13,Good,121,Unhealthy for Sensitive Groups,-26.2044,28.0456
Southern Africa,South Africa,Uitenhage,100,Unhealthy for Sensitive Groups,4,Good,8,Good,7,Good,100,Unhealthy for Sensitive Groups,-33.75,25.4
Southern Africa,South Africa,Upington,39,Good,0,Good,29,Good,0,Good,39,Good,-28.4572,21.2425
Southern Africa,South Africa,George,97,Moderate,1,Good,21,Good,0,Good,97,Moderate,-33.9667,22.45
Southern Africa,South Africa,Colesberg,26,Good,1,Good,17,Good,1,Good,26,Good,-30.7167,25.1
Southern Africa,South Africa,Thohoyandou,31,Good,1,Good,29,Good,0,Good,31,Good,-22.95,30.4833
Southern Africa,South Africa,Glencoe,139,Unhealthy for Sensitive Groups,3,Good,7,Good,10,Good,139,Unhealthy for Sensitive Groups,-28.1833,30.15
Southern Africa,South Africa,Villiers,96,Moderate,3,Good,20,Good,3,Good,96,Moderate,-27.0333,28.6
Southern Africa,South Africa,Aliwal North,82,Moderate,1,Good,0,Good,18,Good,82,Moderate,-30.7,26.7
Southern Africa,South Africa,Lichtenburg,107,Unhealthy for Sensitive Groups,3,Good,17,Good,6,Good,107,Unhealthy for Sensitive Groups,-26.15,26.1667
Southern Africa,South Africa,Ventersburg,156,Unhealthy,8,Good,4,Good,13,Good,156,Unhealthy,-28.0833,27.1333
Southern Africa,South Africa,Cullinan,262,Very Unhealthy,16,Good,3,Good,15,Good,262,Very Unhealthy,-25.6728,28.5208
Southern Africa,South Africa,Virginia,160,Unhealthy,4,Good,12,Good,12,Good,160,Unhealthy,-28.1064,26.8622
Southern Africa,South Africa,Vryheid,92,Moderate,2,Good,13,Good,5,Good,92,Moderate,-27.7669,30.8
Southern Africa,South Africa,Port Shepstone,39,Good,1,Good,29,Good,0,Good,39,Good,-30.75,30.45
Southern Africa,South Africa,Greytown,64,Moderate,2,Good,25,Good,2,Good,64,Moderate,10.9467,-83.7358
East Africa,South Sudan,Torit,65,Moderate,1,Good,12,Good,0,Good,65,Moderate,4.4081,32.575
East Africa,South Sudan,Tonj,84,Moderate,2,Good,4,Good,0,Good,84,Moderate,7.28,28.68
East Africa,South Sudan,Yambio,60,Moderate,1,Good,6,Good,0,Good,60,Moderate,4.565,28.375
East Africa,South Sudan,Gogrial,72,Moderate,2,Good,8,Good,0,Good,72,Moderate,8.53,28.1
East Africa,South Sudan,Juba,51,Moderate,1,Good,22,Good,0,Good,51,Moderate,4.85,31.6
East Africa,South Sudan,Yei,39,Good,1,Good,14,Good,0,Good,39,Good,4.0904,30.68
East Africa,South Sudan,Yirol,63,Moderate,1,Good,12,Good,0,Good,63,Moderate,6.56,30.51
East Africa,South Sudan,Maridi,48,Good,1,Good,6,Good,0,Good,48,Good,4.91,29.45
East Africa,South Sudan,Malakal,59,Moderate,1,Good,13,Good,0,Good,59,Moderate,9.55,31.65
North Africa,Sudan,Khartoum,77,Moderate,2,Good,46,Good,1,Good,77,Moderate,15.5006,32.56
North Africa,Sudan,Kassala,93,Moderate,1,Good,37,Good,0,Good,93,Moderate,15.45,36.4
North Africa,Sudan,Sinnar,57,Moderate,1,Good,16,Good,0,Good,57,Moderate,19.85,74
North Africa,Sudan,Rabak,51,Moderate,1,Good,20,Good,0,Good,51,Moderate,13.185,32.744
West Africa,Togo,Sotouboua,77,Moderate,1,Good,19,Good,0,Good,77,Moderate,8.5667,0.9833
West Africa,Togo,Mango,40,Good,1,Good,13,Good,1,Good,40,Good,27.9914,-82.307
West Africa,Togo,Kara,45,Good,2,Good,11,Good,1,Good,45,Good,9.5511,1.1861
West Africa,Togo,Bassar,48,Good,2,Good,12,Good,0,Good,48,Good,9.25,0.7833
West Africa,Togo,Dapaong,48,Good,1,Good,27,Good,0,Good,48,Good,10.8667,0.2
West Africa,Togo,Badou,59,Moderate,1,Good,18,Good,0,Good,59,Moderate,7.5833,0.6
West Africa,Togo,Bafilo,43,Good,1,Good,19,Good,0,Good,43,Good,9.35,1.2667
West Africa,Togo,Niamtougou,56,Moderate,1,Good,29,Good,0,Good,56,Moderate,9.7667,1.1
North Africa,Tunisia,Tabursuq,57,Moderate,1,Good,57,Moderate,0,Good,27,Good,36.4572,9.2483
North Africa,Tunisia,Tunis,45,Good,1,Good,43,Good,2,Good,45,Good,36.8064,10.1817
East Africa,Uganda,Masindi,62,Moderate,2,Good,17,Good,0,Good,62,Moderate,1.6836,31.7222
East Africa,Uganda,Paidha,59,Moderate,1,Good,17,Good,0,Good,59,Moderate,2.4167,30.9875
East Africa,Uganda,Kitgum,51,Moderate,1,Good,15,Good,0,Good,51,Moderate,3.2889,32.8778
East Africa,Uganda,Buwenge,118,Unhealthy for Sensitive Groups,3,Good,16,Good,1,Good,118,Unhealthy for Sensitive Groups,0.6503,33.1703
East Africa,Uganda,Adjumani,66,Moderate,2,Good,22,Good,0,Good,66,Moderate,3.3772,31.7906
East Africa,Uganda,Apac,69,Moderate,2,Good,26,Good,0,Good,69,Moderate,1.985,32.535
East Africa,Uganda,Arua,63,Moderate,2,Good,19,Good,0,Good,63,Moderate,3.0353,30.9108
East Africa,Uganda,Soroti,54,Moderate,2,Good,28,Good,0,Good,54,Moderate,1.715,33.6111
East Africa,Uganda,Ibanda,68,Moderate,2,Good,20,Good,0,Good,68,Moderate,-0.1347,30.495
East Africa,Uganda,Hima,78,Moderate,1,Good,19,Good,0,Good,78,Moderate,0.2906,30.1775
East Africa,Uganda,Kireka,94,Moderate,4,Good,21,Good,2,Good,94,Moderate,0.3467,32.5
East Africa,Uganda,Luwero,102,Unhealthy for Sensitive Groups,2,Good,12,Good,1,Good,102,Unhealthy for Sensitive Groups,0.8331,32.4994
East Africa,Uganda,Bombo,127,Unhealthy for Sensitive Groups,3,Good,13,Good,1,Good,127,Unhealthy for Sensitive Groups,0.5778,32.545
East Africa,Uganda,Masaka,65,Moderate,2,Good,16,Good,0,Good,65,Moderate,-0.3411,31.7361
East Africa,Uganda,Bugembe,156,Unhealthy,7,Good,14,Good,4,Good,156,Unhealthy,0.4675,33.2414
East Africa,Uganda,Kamwenge,63,Moderate,2,Good,16,Good,0,Good,63,Moderate,0.1861,30.4539
East Africa,Uganda,Mbarara,48,Good,2,Good,16,Good,0,Good,48,Good,-0.6133,30.6583
East Africa,Uganda,Moyo,58,Moderate,1,Good,21,Good,0,Good,58,Moderate,3.6504,31.72
East Africa,Uganda,Iganga,111,Unhealthy for Sensitive Groups,4,Good,29,Good,1,Good,111,Unhealthy for Sensitive Groups,0.615,33.485
East Africa,Uganda,Pakwach,57,Moderate,2,Good,18,Good,0,Good,57,Moderate,2.4619,31.4983
East Africa,Uganda,Lugazi,105,Unhealthy for Sensitive Groups,3,Good,18,Good,1,Good,105,Unhealthy for Sensitive Groups,0.3833,32.9242
East Africa,Uganda,Koboko,67,Moderate,1,Good,20,Good,0,Good,67,Moderate,3.41,30.96
East Africa,Uganda,Ntungamo,160,Unhealthy,5,Good,23,Good,1,Good,160,Unhealthy,-0.8819,30.2653
East Africa,Uganda,Kanungu,176,Unhealthy,5,Good,19,Good,1,Good,176,Unhealthy,-0.8969,29.7756
East Africa,Uganda,Hoima,59,Moderate,2,Good,17,Good,0,Good,59,Moderate,1.4319,31.3525
East Africa,Uganda,Gulu,74,Moderate,1,Good,19,Good,0,Good,74,Moderate,2.7817,32.2992
East Africa,Uganda,Jinja,78,Moderate,2,Good,30,Good,0,Good,78,Moderate,0.4233,33.2039
East Africa,Uganda,Mubende,68,Moderate,2,Good,14,Good,0,Good,68,Moderate,0.5575,31.395
East Africa,Uganda,Nebbi,58,Moderate,1,Good,20,Good,0,Good,58,Moderate,2.4792,31.09
East Africa,Uganda,Bundibugyo,55,Moderate,1,Good,16,Good,0,Good,55,Moderate,0.7125,30.06
East Africa,Uganda,Kamuli,118,Unhealthy for Sensitive Groups,2,Good,15,Good,1,Good,118,Unhealthy for Sensitive Groups,0.945,33.125
East Africa,Uganda,Entebbe,54,Moderate,1,Good,21,Good,0,Good,54,Moderate,0.05,32.46
East Africa,Uganda,Mpigi,85,Moderate,2,Good,17,Good,1,Good,85,Moderate,0.23,32.33
East Africa,Uganda,Kapchorwa,69,Moderate,2,Good,27,Good,0,Good,69,Moderate,1.4,34.45
East Africa,Uganda,Kaberamaido,68,Moderate,2,Good,21,Good,0,Good,68,Moderate,1.7667,33.1522
East Africa,Uganda,Kayunga,113,Unhealthy for Sensitive Groups,3,Good,14,Good,1,Good,113,Unhealthy for Sensitive Groups,0.7033,32.9036
East Africa,Uganda,Mayuge,73,Moderate,3,Good,33,Good,1,Good,73,Moderate,0.4578,33.48
East Africa,Uganda,Njeru,152,Unhealthy,7,Good,14,Good,4,Good,152,Unhealthy,0.4311,33.1478
East Africa,Uganda,Lukaya,39,Good,1,Good,14,Good,0,Good,39,Good,-0.1508,31.8744
East Africa,Uganda,Kampala,110,Unhealthy for Sensitive Groups,4,Good,18,Good,2,Good,110,Unhealthy for Sensitive Groups,0.3136,32.5811
East Africa,Uganda,Mityana,90,Moderate,2,Good,14,Good,1,Good,90,Moderate,0.4006,32.0422
East Africa,Uganda,Sironko,78,Moderate,2,Good,18,Good,1,Good,78,Moderate,1.2306,34.2481
East Africa,Uganda,Wobulenzi,85,Moderate,3,Good,19,Good,1,Good,85,Moderate,0.72,32.53
East Africa,Uganda,Bugiri,157,Unhealthy,5,Good,23,Good,1,Good,157,Unhealthy,0.5694,33.7486
East Africa,Uganda,Fort Portal,65,Moderate,3,Good,15,Good,0,Good,65,Moderate,0.6544,30.2744
East Africa,Uganda,Tororo,80,Moderate,5,Good,35,Good,2,Good,80,Moderate,0.6928,34.1811
East Africa,Uganda,Kisoro,180,Unhealthy,2,Good,22,Good,1,Good,180,Unhealthy,-1.285,29.685
East Africa,Uganda,Mukono,94,Moderate,3,Good,23,Good,1,Good,94,Moderate,0.3533,32.7553
East Africa,Uganda,Pallisa,73,Moderate,3,Good,34,Good,1,Good,73,Moderate,1.1675,33.71
East Africa,Uganda,Kasese,70,Moderate,1,Good,18,Good,0,Good,70,Moderate,0.1867,30.0881
East Africa,Uganda,Kabale,82,Moderate,3,Good,20,Good,1,Good,82,Moderate,-1.25,29.99
East Africa,Uganda,Yumbe,45,Good,1,Good,17,Good,0,Good,45,Good,3.465,31.245
East Africa,Uganda,Wakiso,95,Moderate,4,Good,16,Good,2,Good,95,Moderate,0.3981,32.4781
East Africa,Uganda,Kotido,45,Good,1,Good,19,Good,0,Good,45,Good,3.0061,34.1125
East Africa,Uganda,Kiboga,72,Moderate,2,Good,21,Good,0,Good,72,Moderate,0.92,31.76
East Africa,Uganda,Lira,61,Moderate,2,Good,27,Good,0,Good,61,Moderate,2.2472,32.9
East Africa,Uganda,Busembatia,102,Unhealthy for Sensitive Groups,6,Good,30,Good,2,Good,102,Unhealthy for Sensitive Groups,0.775,33.625
East Africa,Uganda,Mbale,75,Moderate,2,Good,26,Good,0,Good,75,Moderate,1.0806,34.175
East Africa,Uganda,Kyenjojo,61,Moderate,2,Good,15,Good,0,Good,61,Moderate,0.61,30.6442
East Africa,Uganda,Busia,86,Moderate,5,Good,37,Good,2,Good,86,Moderate,0.4669,34.09
East Africa,Uganda,Bushenyi,74,Moderate,3,Good,21,Good,0,Good,74,Moderate,-0.5417,30.1878
East Africa,United Republic of Tanzania,Kabanga,171,Unhealthy,6,Good,10,Good,3,Good,171,Unhealthy,-2.9022,30.4986
East Africa,United Republic of Tanzania,Mikumi,26,Good,0,Good,16,Good,0,Good,26,Good,-7.4072,36.9722
East Africa,United Republic of Tanzania,Ngara,64,Moderate,3,Good,14,Good,1,Good,64,Moderate,-2.5122,30.6558
East Africa,United Republic of Tanzania,Ngorongoro,33,Good,0,Good,15,Good,0,Good,33,Good,-3.2496,35.52
East Africa,United Republic of Tanzania,Moshi,25,Good,1,Good,18,Good,0,Good,25,Good,-3.3349,37.3404
East Africa,United Republic of Tanzania,Sumbawanga,23,Good,0,Good,21,Good,0,Good,23,Good,-7.9667,31.6167
East Africa,United Republic of Tanzania,Kilosa,31,Good,0,Good,16,Good,0,Good,31,Good,-6.83,36.9875
East Africa,United Republic of Tanzania,Ifakara,18,Good,0,Good,16,Good,0,Good,18,Good,-8.1,36.6833
East Africa,United Republic of Tanzania,Kibiti,34,Good,0,Good,19,Good,0,Good,34,Good,-7.7296,38.95
East Africa,United Republic of Tanzania,Manyoni,19,Good,0,Good,19,Good,0,Good,16,Good,-5.75,34.8333
East Africa,United Republic of Tanzania,Ngerengere,26,Good,0,Good,15,Good,0,Good,26,Good,-6.75,38.1167
East Africa,United Republic of Tanzania,Chala,18,Good,0,Good,18,Good,0,Good,11,Good,-15.8519,-74.25
East Africa,United Republic of Tanzania,Uvinza,37,Good,1,Good,28,Good,0,Good,37,Good,-5.1036,30.3911
East Africa,United Republic of Tanzania,Dodoma,21,Good,0,Good,21,Good,0,Good,18,Good,-6.1731,35.7419
East Africa,United Republic of Tanzania,Bagamoyo,41,Good,1,Good,17,Good,0,Good,41,Good,-6.4444,38.9028
East Africa,United Republic of Tanzania,Mpwapwa,23,Good,0,Good,15,Good,0,Good,23,Good,-6.35,36.4833
East Africa,United Republic of Tanzania,Namanga,42,Good,1,Good,13,Good,0,Good,42,Good,-2.55,36.7833
East Africa,United Republic of Tanzania,Bugarama,45,Good,1,Good,20,Good,0,Good,45,Good,-2.6972,29.0083
East Africa,United Republic of Tanzania,Mwanza,24,Good,0,Good,14,Good,0,Good,24,Good,-2.5167,32.9
East Africa,United Republic of Tanzania,Lindi,35,Good,0,Good,22,Good,0,Good,35,Good,-9.9969,39.7144
East Africa,United Republic of Tanzania,Nzega,34,Good,0,Good,15,Good,0,Good,34,Good,-4.2169,33.1864
East Africa,United Republic of Tanzania,Iringa,17,Good,0,Good,17,Good,0,Good,11,Good,-7.77,35.69
East Africa,United Republic of Tanzania,Mbulu,22,Good,0,Good,15,Good,0,Good,22,Good,-3.85,35.55
East Africa,United Republic of Tanzania,Wete,35,Good,1,Good,21,Good,0,Good,35,Good,-5.0567,39.7281
East Africa,United Republic of Tanzania,Mpanda,32,Good,0,Good,18,Good,0,Good,32,Good,-6.35,31.0667
East Africa,United Republic of Tanzania,Isaka,36,Good,0,Good,15,Good,0,Good,36,Good,-21.15,47
East Africa,United Republic of Tanzania,Chake Chake,52,Moderate,1,Good,25,Good,0,Good,52,Moderate,-5.2395,39.77
East Africa,United Republic of Tanzania,Shinyanga,22,Good,0,Good,19,Good,0,Good,22,Good,-3.6619,33.4231
East Africa,United Republic of Tanzania,Karema,195,Unhealthy,10,Good,25,Good,10,Good,195,Unhealthy,-6.8205,30.4389
East Africa,United Republic of Tanzania,Itigi,22,Good,0,Good,16,Good,0,Good,22,Good,-5.7,34.4833
East Africa,United Republic of Tanzania,Vwawa,21,Good,0,Good,15,Good,0,Good,21,Good,-9.1081,32.9347
East Africa,United Republic of Tanzania,Kahama,15,Good,1,Good,15,Good,0,Good,15,Good,-3.8375,32.6
East Africa,United Republic of Tanzania,Babati,35,Good,0,Good,16,Good,0,Good,35,Good,-4.2167,35.75
East Africa,United Republic of Tanzania,Bariadi,30,Good,0,Good,17,Good,0,Good,30,Good,-2.7919,33.9894
East Africa,United Republic of Tanzania,Tunduru,18,Good,0,Good,18,Good,0,Good,17,Good,-11.0667,37.35
East Africa,United Republic of Tanzania,Kakonko,31,Good,1,Good,25,Good,0,Good,31,Good,-3.2796,30.96
East Africa,United Republic of Tanzania,Tunduma,22,Good,0,Good,22,Good,0,Good,19,Good,-9.3,32.7667
East Africa,United Republic of Tanzania,Songea,21,Good,0,Good,20,Good,0,Good,21,Good,-10.6833,35.65
East Africa,United Republic of Tanzania,Mugumu,50,Good,1,Good,15,Good,0,Good,50,Good,-1.8333,34.6667
East Africa,United Republic of Tanzania,Masasi,44,Good,0,Good,23,Good,0,Good,44,Good,-10.7296,38.7999
East Africa,United Republic of Tanzania,Korogwe,41,Good,1,Good,18,Good,0,Good,41,Good,-5.1558,38.4503
East Africa,United Republic of Tanzania,Mbeya,21,Good,0,Good,21,Good,0,Good,16,Good,-8.9,33.45
East Africa,United Republic of Tanzania,Mlimba,21,Good,0,Good,19,Good,0,Good,21,Good,-8.7786,35.8111
East Africa,United Republic of Tanzania,Same,28,Good,1,Good,15,Good,0,Good,28,Good,-9,125.65
East Africa,United Republic of Tanzania,Kibaha,42,Good,1,Good,19,Good,0,Good,42,Good,-6.7667,38.9167
East Africa,United Republic of Tanzania,Biharamulo,27,Good,1,Good,17,Good,0,Good,27,Good,-2.6333,31.3167
East Africa,United Republic of Tanzania,Morogoro,56,Moderate,1,Good,14,Good,0,Good,56,Moderate,-6.8242,37.6633
East Africa,United Republic of Tanzania,Musoma,46,Good,1,Good,19,Good,0,Good,46,Good,-1.5,33.8
East Africa,United Republic of Tanzania,Butiama,26,Good,1,Good,14,Good,0,Good,26,Good,-1.7667,33.9667
East Africa,United Republic of Tanzania,Singida,19,Good,0,Good,19,Good,0,Good,8,Good,-4.8167,34.75
East Africa,United Republic of Tanzania,Arusha,41,Good,1,Good,10,Good,0,Good,41,Good,-3.3667,36.6833
East Africa,United Republic of Tanzania,Bukoba,37,Good,1,Good,18,Good,0,Good,37,Good,-1.3333,31.8167
East Africa,United Republic of Tanzania,Tabora,17,Good,0,Good,16,Good,0,Good,17,Good,-5.0167,32.8
East Africa,United Republic of Tanzania,Ngudu,29,Good,0,Good,13,Good,0,Good,29,Good,-2.9667,33.3333
East Africa,United Republic of Tanzania,Kilindoni,36,Good,0,Good,24,Good,0,Good,36,Good,-7.9167,39.65
East Africa,United Republic of Tanzania,Mazinde,26,Good,0,Good,16,Good,0,Good,26,Good,-4.8073,38.2118
East Africa,United Republic of Tanzania,Chato,33,Good,1,Good,22,Good,0,Good,33,Good,-2.6378,31.7669
East Africa,United Republic of Tanzania,Tukuyu,19,Good,0,Good,16,Good,0,Good,19,Good,-9.25,33.65
East Africa,United Republic of Tanzania,Sikonge,18,Good,0,Good,18,Good,0,Good,17,Good,-5.6333,32.7667
East Africa,United Republic of Tanzania,Kasulu,25,Good,2,Good,14,Good,0,Good,25,Good,-4.58,30.1
East Africa,United Republic of Tanzania,Njombe,24,Good,0,Good,14,Good,0,Good,24,Good,-9.3333,34.7667
East Africa,United Republic of Tanzania,Kigoma,56,Moderate,2,Good,24,Good,0,Good,56,Moderate,-4.8833,29.6333
East Africa,United Republic of Tanzania,Lushoto,22,Good,0,Good,17,Good,0,Good,22,Good,-4.7928,38.2911
East Africa,United Republic of Tanzania,Tanga,40,Good,0,Good,20,Good,0,Good,40,Good,-5.0667,39.1
Southern Africa,Zambia,Kafue,36,Good,0,Good,16,Good,0,Good,36,Good,-15.7667,28.1833
Southern Africa,Zambia,Senanga,125,Unhealthy for Sensitive Groups,2,Good,22,Good,2,Good,125,Unhealthy for Sensitive Groups,-16.1167,23.2667
Southern Africa,Zambia,Mumbwa,76,Moderate,2,Good,17,Good,1,Good,76,Moderate,-14.9853,27.0619
Southern Africa,Zambia,Choma,37,Good,1,Good,21,Good,0,Good,37,Good,-16.7711,26.9922
Southern Africa,Zambia,Chinsali,30,Good,0,Good,24,Good,0,Good,30,Good,-10.5522,32.0692
Southern Africa,Zambia,Mwinilunga,57,Moderate,1,Good,22,Good,0,Good,57,Moderate,-11.7172,24.4289
Southern Africa,Zambia,Mpika,33,Good,0,Good,18,Good,0,Good,33,Good,-11.83,31.46
Southern Africa,Zambia,Chingola,40,Good,1,Good,27,Good,0,Good,40,Good,-12.5333,27.85
Southern Africa,Zambia,Chipata,29,Good,0,Good,19,Good,0,Good,29,Good,-13.6453,32.6464
Southern Africa,Zambia,Livingstone,27,Good,1,Good,17,Good,0,Good,27,Good,-17.85,25.8667
Southern Africa,Zambia,Mufulira,47,Good,1,Good,26,Good,0,Good,47,Good,-12.5356,28.2419
Southern Africa,Zambia,Lundazi,42,Good,1,Good,21,Good,0,Good,42,Good,-12.3,33.1833
Southern Africa,Zambia,Sesheke,27,Good,0,Good,27,Good,0,Good,20,Good,-17.4667,24.3
Southern Africa,Zambia,Lusaka,42,Good,1,Good,19,Good,0,Good,42,Good,-15.4167,28.2833
Southern Africa,Zambia,Luanshya,36,Good,1,Good,25,Good,0,Good,36,Good,-13.1333,28.4
Southern Africa,Zambia,Mansa,41,Good,1,Good,21,Good,0,Good,41,Good,-11.2,28.8833
Southern Africa,Zambia,Kapiri Mposhi,33,Good,1,Good,17,Good,0,Good,33,Good,-13.9772,28.6847
Southern Africa,Zambia,Nchelenge,59,Moderate,1,Good,24,Good,0,Good,59,Moderate,-9.3533,28.7403
Southern Africa,Zambia,Chililabombwe,57,Moderate,1,Good,20,Good,0,Good,57,Moderate,-12.3667,27.8278
Southern Africa,Zambia,Nakonde,19,Good,0,Good,16,Good,0,Good,19,Good,-9.3272,32.7583
Southern Africa,Zambia,Kitwe,56,Moderate,1,Good,22,Good,0,Good,56,Moderate,-12.8167,28.2
Southern Africa,Zambia,Mazabuka,35,Good,1,Good,20,Good,0,Good,35,Good,-15.8467,27.7475
Southern Africa,Zambia,Mbala,22,Good,0,Good,15,Good,0,Good,22,Good,-8.8333,31.3833
Southern Africa,Zambia,Kabwe,27,Good,1,Good,19,Good,0,Good,27,Good,-14.4333,28.45
Southern Africa,Zambia,Mongu,43,Good,1,Good,19,Good,0,Good,43,Good,-15.2775,23.1319
Southern Africa,Zambia,Kaoma,31,Good,1,Good,23,Good,0,Good,31,Good,-14.8,24.8
Southern Africa,Zambia,Kawambwa,19,Good,0,Good,19,Good,0,Good,16,Good,-9.7914,29.0789
Southern Africa,Zambia,Ndola,43,Good,1,Good,19,Good,0,Good,43,Good,-12.9667,28.6333
Southern Africa,Zimbabwe,Hwange,44,Good,0,Good,17,Good,0,Good,44,Good,-18.3647,26.5
Southern Africa,Zimbabwe,Kariba,62,Moderate,2,Good,15,Good,0,Good,62,Moderate,-16.5167,28.8
Southern Africa,Zimbabwe,Mutoko,52,Moderate,2,Good,13,Good,0,Good,52,Moderate,-17.4,32.2167
Southern Africa,Zimbabwe,Chiredzi,36,Good,1,Good,18,Good,0,Good,36,Good,-21.0389,31.6778
Southern Africa,Zimbabwe,Chipinge,41,Good,2,Good,13,Good,0,Good,41,Good,-20.2,32.62
Southern Africa,Zimbabwe,Kadoma,25,Good,0,Good,25,Good,0,Good,22,Good,34.7333,135.5833
Southern Africa,Zimbabwe,Harare,61,Moderate,3,Good,14,Good,2,Good,61,Moderate,-17.8292,31.0522
Southern Africa,Zimbabwe,Gweru,45,Good,0,Good,17,Good,0,Good,45,Good,-19.4614,29.8022
Southern Africa,Zimbabwe,Rusape,17,Good,1,Good,17,Good,0,Good,12,Good,-18.5367,32.1247
Southern Africa,Zimbabwe,Shurugwi,39,Good,0,Good,17,Good,0,Good,39,Good,-19.6667,30
Southern Africa,Zimbabwe,Norton,68,Moderate,3,Good,15,Good,1,Good,68,Moderate,54.589,-1.3157
Southern Africa,Zimbabwe,Chitungwiza,63,Moderate,3,Good,14,Good,2,Good,63,Moderate,-17.9939,31.0481
Southern Africa,Zimbabwe,Masvingo,34,Good,1,Good,15,Good,0,Good,34,Good,-20.0744,30.8328
Southern Africa,Zimbabwe,Gwanda,53,Moderate,2,Good,16,Good,1,Good,53,Moderate,-20.9389,29.0186
Southern Africa,Zimbabwe,Bindura,93,Moderate,5,Good,14,Good,3,Good,93,Moderate,-17.3,31.3333
Southern Africa,Zimbabwe,Chinhoyi,50,Good,2,Good,16,Good,1,Good,50,Good,-17.3497,30.1944
Southern Africa,Zimbabwe,Marondera,32,Good,1,Good,22,Good,0,Good,32,Good,-18.1897,31.5467
Southern Africa,Zimbabwe,Karoi,25,Good,0,Good,25,Good,0,Good,25,Good,-16.81,29.7
Southern Africa,Zimbabwe,Kwekwe,37,Good,1,Good,18,Good,0,Good,37,Good,-18.9167,29.8167
Southern Africa,Zimbabwe,Chegutu,42,Good,1,Good,17,Good,0,Good,42,Good,-18.14,30.15
Southern Africa,Zimbabwe,Mutare,29,Good,1,Good,21,Good,0,Good,29,Good,-18.9667,32.6333
Southern Africa,Zimbabwe,Zvishavane,39,Good,1,Good,18,Good,0,Good,39,Good,-20.3333,30.0333
Southern Africa,Zimbabwe,Bulawayo,65,Moderate,1,Good,17,Good,1,Good,65,Moderate,-20.17,28.58
Southern Africa,Zimbabwe,Beitbridge,52,Moderate,2,Good,19,Good,1,Good,52,Moderate,-22.2167,30
Southern Africa,Zimbabwe,Victoria Falls,26,Good,0,Good,26,Good,0,Good,14,Good,-17.9333,25.8333
